train_no,station,time,type,category,name,location,notes,schedule_summary,schedule_details,fare,terminals,schedule,fare_notes,terminal,departure_point,route,line,direction,origin,start_time,end_time,flight_id,operator,sequence,service_details,western_breakfast,western_lunch,western_dinner,japanese_breakfast,japanese_lunch,japanese_dinner,prices,company,page,title,effective_date,section,distance_km,runs_per_day,duration_hr,price,carrier,destination,class,service,locations,date,Original_Name,Latitude,Longitude,time_minutes
1,大阪,0:11,Arr,,,,,,,,,,,,,,,,,,,,,,,,,,,,,,,,,,,,,,,,,,,,,大阪,34.6937569,135.5014539,11.0
1,江口,0:20,Dep,,,,,,,,,,,,,,,,,,,,,,,,,,,,,,,,,,,,,,,,,,,,,江口,27.8036782,108.7689072,20.0
1,新設營,0:30,Dep,,,,,,,,,,,,,,,,,,,,,,,,,,,,,,,,,,,,,,,,,,,,,新設營,1.2998033,103.8520187,30.0
1,新木崗,0:50,Arr,,,,,,,,,,,,,,,,,,,,,,,,,,,,,,,,,,,,,,,,,,,,,新木崗,23.3774095,112.5838171,50.0
1,斯原崗,0:50,Arr,,,,,,,,,,,,,,,,,,,,,,,,,,,,,,,,,,,,,,,,,,,,,斯原崗,35.2360665,133.9308678,50.0
1,臺中,1:02,Arr,,,,,,,,,,,,,,,,,,,,,,,,,,,,,,,,,,,,,,,,,,,,,臺中,24.1370662,120.6868667,62.0
1,臺中,1:05,Dep,,,,,,,,,,,,,,,,,,,,,,,,,,,,,,,,,,,,,,,,,,,,,臺中,24.1370662,120.6868667,65.0
1,訓戎,1:05,Dep,,,,,,,,,,,,,,,,,,,,,,,,,,,,,,,,,,,,,,,,,,,,,訓戎,42.8944039,130.2238623,65.0
1,英水,1:11,Dep,,,,,,,,,,,,,,,,,,,,,,,,,,,,,,,,,,,,,,,,,,,,,英水,39.8071383,115.8756403,71.0
1,新木崗,1:20,Dep,,,,,,,,,,,,,,,,,,,,,,,,,,,,,,,,,,,,,,,,,,,,,新木崗,23.3774095,112.5838171,80.0
1,斯原崗,1:20,Dep,,,,,,,,,,,,,,,,,,,,,,,,,,,,,,,,,,,,,,,,,,,,,斯原崗,35.2360665,133.9308678,80.0
1,安灣,1:22,Dep,,,,,,,,,,,,,,,,,,,,,,,,,,,,,,,,,,,,,,,,,,,,,安灣,34.7309465,105.5083092,82.0
1,奇克,1:30,Dep,,,,,,,,,,,,,,,,,,,,,,,,,,,,,,,,,,,,,,,,,,,,,奇克,49.5685967,128.4691505,90.0
1,慶祝,1:32,Dep,,,,,,,,,,,,,,,,,,,,,,,,,,,,,,,,,,,,,,,,,,,,,慶祝,26.3685591,105.1525349,92.0
1,琿春,1:50,Arr,,,,,,,,,,,,,,,,,,,,,,,,,,,,,,,,,,,,,,,,,,,,,琿春,42.9899308,130.4643291,110.0
1,興山,2:00,Arr,,,,,,,,,,,,,,,,,,,,,,,,,,,,,,,,,,,,,,,,,,,,,興山,31.308347,110.803953,120.0
1,京城,02:24,Arr,,,,,,,,,,,,,,,,,,,,,,,,,,,,,,,,,,,,,,,,,,,,,京城,37.5548238,126.9722165,144.0
1,攤渡,2:30,Arr,,,,,,,,,,,,,,,,,,,,,,,,,,,,,,,,,,,,,,,,,,,,,攤渡,29.5919197,113.6898298,150.0
1,龍山,02:30,Arr,,,,,,,,,,,,,,,,,,,,,,,,,,,,,,,,,,,,,,,,,,,,,龍山,29.231187,109.496576,150.0
1,岡山,2:33,Arr,,,,,,,,,,,,,,,,,,,,,,,,,,,,,,,,,,,,,,,,,,,,,岡山,34.6667504,133.9182664,153.0
1,富錦,2:40,Arr,,,,,,,,,,,,,,,,,,,,,,,,,,,,,,,,,,,,,,,,,,,,,富錦,47.174394,132.516788,160.0
1,興山,3:00,Dep,,,,,,,,,,,,,,,,,,,,,,,,,,,,,,,,,,,,,,,,,,,,,興山,31.308347,110.803953,180.0
1,常家道,3:00,Arr,,,,,,,,,,,,,,,,,,,,,,,,,,,,,,,,,,,,,,,,,,,,,常家道,37.0658279,117.3265329,180.0
1,東京,3:00,Dep,,,,,,,,,,,,,,,,,,,,,,,,,,,,,,,,,,,,,,,,,,,,,東京,35.6768601,139.7638947,180.0
1,東京,3:00,Dep,,,,,,,,,,,,,,,,,,,,,,,,,,,,,,,,,,,,,,,,,,,,,東京,35.6768601,139.7638947,180.0
1,嘉義,3:08,Arr,,,,,,,,,,,,,,,,,,,,,,,,,,,,,,,,,,,,,,,,,,,,,嘉義,23.4799042,120.4415839,188.0
1,嘉義,3:10,Dep,,,,,,,,,,,,,,,,,,,,,,,,,,,,,,,,,,,,,,,,,,,,,嘉義,23.4799042,120.4415839,190.0
1,富錦,3:10,Dep,,,,,,,,,,,,,,,,,,,,,,,,,,,,,,,,,,,,,,,,,,,,,富錦,47.174394,132.516788,190.0
1,横濱,3:27,Dep,,,,,,,,,,,,,,,,,,,,,,,,,,,,,,,,,,,,,,,,,,,,,横濱,35.4503381,139.6343802,207.0
1,攤渡,3:30,Dep,,,,,,,,,,,,,,,,,,,,,,,,,,,,,,,,,,,,,,,,,,,,,攤渡,29.5919197,113.6898298,210.0
1,川鎮,3:30,Arr,,,,,,,,,,,,,,,,,,,,,,,,,,,,,,,,,,,,,,,,,,,,,川鎮,43.807622,142.4391135,210.0
1,抓吉,3:30,Arr,,,,,,,,,,,,,,,,,,,,,,,,,,,,,,,,,,,,,,,,,,,,,抓吉,39.0757265,114.9828565,210.0
1,查哈陽,3:40,Arr,,,,,,,,,,,,,,,,,,,,,,,,,,,,,,,,,,,,,,,,,,,,,查哈陽,48.4217844,124.2921292,220.0
1,同江,4:00,Arr,,,,,,,,,,,,,,,,,,,,,,,,,,,,,,,,,,,,,,,,,,,,,同江,47.78564,133.1718339,240.0
1,常家道,4:00,Dep,,,,,,,,,,,,,,,,,,,,,,,,,,,,,,,,,,,,,,,,,,,,,常家道,37.0658279,117.3265329,240.0
1,呼瑪,4:00,Arr,,,,,,,,,,,,,,,,,,,,,,,,,,,,,,,,,,,,,,,,,,,,,呼瑪,51.7100589,126.1030159,240.0
1,渡々天,4:10,Arr,,,,,,,,,,,,,,,,,,,,,,,,,,,,,,,,,,,,,,,,,,,,,渡々天,35.5208711,139.7063401,250.0
1,查哈陽,4:10,Dep,,,,,,,,,,,,,,,,,,,,,,,,,,,,,,,,,,,,,,,,,,,,,查哈陽,48.4217844,124.2921292,250.0
1,臺南,4:17,Arr,,,,,,,,,,,,,,,,,,,,,,,,,,,,,,,,,,,,,,,,,,,,,臺南,22.9912348,120.184982,257.0
1,臺南,4:20,Dep,,,,,,,,,,,,,,,,,,,,,,,,,,,,,,,,,,,,,,,,,,,,,臺南,22.9912348,120.184982,260.0
1,沼津,4:38,Dep,,,,,,,,,,,,,,,,,,,,,,,,,,,,,,,,,,,,,,,,,,,,,沼津,35.1031271,138.8593352,278.0
1,渡々天,4:40,Dep,,,,,,,,,,,,,,,,,,,,,,,,,,,,,,,,,,,,,,,,,,,,,渡々天,35.5208711,139.7063401,280.0
1,湯原,5:00,Arr,,,,,,,,,,,,,,,,,,,,,,,,,,,,,,,,,,,,,,,,,,,,,湯原,47.0053708,130.1137919,300.0
1,川鎮,5:00,Dep,,,,,,,,,,,,,,,,,,,,,,,,,,,,,,,,,,,,,,,,,,,,,川鎮,43.807622,142.4391135,300.0
1,雙河,5:00,Arr,,,,,,,,,,,,,,,,,,,,,,,,,,,,,,,,,,,,,,,,,,,,,雙河,44.842326,82.361049,300.0
1,富錦,5:00,Arr,,,,,,,,,,,,,,,,,,,,,,,,,,,,,,,,,,,,,,,,,,,,,富錦,47.174394,132.516788,300.0
1,高雄,5:05,Arr,,,,,,,,,,,,,,,,,,,,,,,,,,,,,,,,,,,,,,,,,,,,,高雄,22.639838,120.3025796,305.0
1,松山,5:17,Arr,,,,,,,,,,,,,,,,,,,,,,,,,,,,,,,,,,,,,,,,,,,,,松山,33.8399303,132.7507395,317.0
1,静岡,5:22,Dep,,,,,,,,,,,,,,,,,,,,,,,,,,,,,,,,,,,,,,,,,,,,,静岡,34.9715372,138.3883294,322.0
1,濱江,5:30,Arr,,,,,,,,,,,,,,,,,,,,,,,,,,,,,,,,,,,,,,,,,,,,,濱江,45.7792087,126.6566468,330.0
1,富錦,5:30,Dep,,,,,,,,,,,,,,,,,,,,,,,,,,,,,,,,,,,,,,,,,,,,,富錦,47.174394,132.516788,330.0
1,太平,5:40,Arr,,,,,,,,,,,,,,,,,,,,,,,,,,,,,,,,,,,,,,,,,,,,,太平,41.9942218,121.7289458,340.0
1,廣島,5:45,Arr,,,,,,,,,,,,,,,,,,,,,,,,,,,,,,,,,,,,,,,,,,,,,廣島,34.3971933,132.4767339,345.0
1,南崗,5:50,Arr,,,,,,,,,,,,,,,,,,,,,,,,,,,,,,,,,,,,,,,,,,,,,南崗,45.6991743,126.5919596,350.0
1,湯原,6:00,Dep,,,,,,,,,,,,,,,,,,,,,,,,,,,,,,,,,,,,,,,,,,,,,湯原,47.0053708,130.1137919,360.0
1,三道卡,6:00,Arr,,,,,,,,,,,,,,,,,,,,,,,,,,,,,,,,,,,,,,,,,,,,,三道卡,35.404404,138.8701454,360.0
1,呼瑪,6:00,Arr,,,,,,,,,,,,,,,,,,,,,,,,,,,,,,,,,,,,,,,,,,,,,呼瑪,51.7100589,126.1030159,360.0
1,抓吉,6:00,Dep,,,,,,,,,,,,,,,,,,,,,,,,,,,,,,,,,,,,,,,,,,,,,抓吉,39.0757265,114.9828565,360.0
1,釜山,6:00,Arr,,,,,,,,,,,,,,,,,,,,,,,,,,,,,,,,,,,,,,,,,,,,,釜山,35.1799528,129.0752365,360.0
1,太平,6:10,Dep,,,,,,,,,,,,,,,,,,,,,,,,,,,,,,,,,,,,,,,,,,,,,太平,41.9942218,121.7289458,370.0
1,南崗,6:20,Dep,,,,,,,,,,,,,,,,,,,,,,,,,,,,,,,,,,,,,,,,,,,,,南崗,45.6991743,126.5919596,380.0
1,濱松,6:22,Dep,,,,,,,,,,,,,,,,,,,,,,,,,,,,,,,,,,,,,,,,,,,,,濱松,34.7109786,137.7259431,382.0
1,同江,6:30,Arr,,,,,,,,,,,,,,,,,,,,,,,,,,,,,,,,,,,,,,,,,,,,,同江,47.78564,133.1718339,390.0
1,釜山,07:00,Dep,,,,,,,,,,,,,,,,,,,,,,,,,,,,,,,,,,,,,,,,,,,,,釜山,35.1799528,129.0752365,420.0
1,小沼,7:25,Arr,,,,,,,,,,,,,,,,,,,,,,,,,,,,,,,,,,,,,,,,,,,,,小沼,47.0533891,142.7263171,445.0
1,濱江,7:30,Dep,,,,,,,,,,,,,,,,,,,,,,,,,,,,,,,,,,,,,,,,,,,,,濱江,45.7792087,126.6566468,450.0
1,三浪津,07:46,Dep,,,,,,,,,,,,,,,,,,,,,,,,,,,,,,,,,,,,,,,,,,,,,三浪津,35.3990296,128.8438715,466.0
1,名古屋,7:50,Arr,,,,,,,,,,,,,,,,,,,,,,,,,,,,,,,,,,,,,,,,,,,,,名古屋,35.1707285,136.8818431,470.0
1,落合,7:52,Arr,,,,,,,,,,,,,,,,,,,,,,,,,,,,,,,,,,,,,,,,,,,,,落合,35.7106637,139.6859133,472.0
1,小沼,7:56,Dep,,,,,,,,,,,,,,,,,,,,,,,,,,,,,,,,,,,,,,,,,,,,,小沼,47.0533891,142.7263171,476.0
1,名古屋,7:56,Dep,,,,,,,,,,,,,,,,,,,,,,,,,,,,,,,,,,,,,,,,,,,,,名古屋,35.1707285,136.8818431,476.0
1,安東驛,8:00,Dep,,,,,,,,,,,,,,,,,,,,,,,,,,,,,,,,,,,,,,,,,,,,,安東驛,40.1237658,124.3821748,480.0
1,齊齊哈爾,8:00,Dep,,,,,,,,,,,,,,,,,,,,,,,,,,,,,,,,,,,,,,,,,,,,,齊齊哈爾,47.7363891,124.6567611,480.0
1,運糧河,8:00,Arr,,,,,,,,,,,,,,,,,,,,,,,,,,,,,,,,,,,,,,,,,,,,,運糧河,34.797107,114.1903439,480.0
1,同江,8:00,Dep,,,,,,,,,,,,,,,,,,,,,,,,,,,,,,,,,,,,,,,,,,,,,同江,47.78564,133.1718339,480.0
1,阿穆爾,8:00,Arr,,,,,,,,,,,,,,,,,,,,,,,,,,,,,,,,,,,,,,,,,,,,,阿穆爾,52.8601309,123.156031,480.0
1,虎頭,8:00,Dep,,,,,,,,,,,,,,,,,,,,,,,,,,,,,,,,,,,,,,,,,,,,,虎頭,45.9833331,133.6611412,480.0
1,承德,8:00,Dep,,,,,,,,,,,,,,,,,,,,,,,,,,,,,,,,,,,,,,,,,,,,,承德,40.9507147,117.9567031,480.0
1,運糧河,8:30,Dep,,,,,,,,,,,,,,,,,,,,,,,,,,,,,,,,,,,,,,,,,,,,,運糧河,34.797107,114.1903439,510.0
1,金山,8:30,Arr,,,,,,,,,,,,,,,,,,,,,,,,,,,,,,,,,,,,,,,,,,,,,金山,35.1430292,136.9008688,510.0
1,三道卡,8:30,Arr,,,,,,,,,,,,,,,,,,,,,,,,,,,,,,,,,,,,,,,,,,,,,三道卡,35.404404,138.8701454,510.0
1,虎頭,8:30,Arr,,,,,,,,,,,,,,,,,,,,,,,,,,,,,,,,,,,,,,,,,,,,,虎頭,45.9833331,133.6611412,510.0
1,北京,8:30,Dep,,,,,,,,,,,,,,,,,,,,,,,,,,,,,,,,,,,,,,,,,,,,,北京,39.9057136,116.3912972,510.0
1,名古屋,8:32,Arr,,,,,,,,,,,,,,,,,,,,,,,,,,,,,,,,,,,,,,,,,,,,,名古屋,35.1707285,136.8818431,512.0
1,河深溝,8:45,Stop,,,,,,,,,,,,,,,,,,,,,,,,,,,,,,,,,,,,,,,,,,,,,河深溝,32.8379128,111.653322,525.0
1,臺北,8:50,Arr,,,,,,,,,,,,,,,,,,,,,,,,,,,,,,,,,,,,,,,,,,,,,臺北,25.0479308,121.5170046,530.0
1,吉林,9:00,Dep,,,,,,,,,,,,,,,,,,,,,,,,,,,,,,,,,,,,,,,,,,,,,吉林,43.7289674,126.1997366,540.0
1,蓮江口,9:00,Arr,,,,,,,,,,,,,,,,,,,,,,,,,,,,,,,,,,,,,,,,,,,,,蓮江口,46.870935,130.3143988,540.0
1,小羅勒密,9:00,Arr,,,,,,,,,,,,,,,,,,,,,,,,,,,,,,,,,,,,,,,,,,,,,小羅勒密,,,540.0
1,黒河,9:00,Dep,,,,,,,,,,,,,,,,,,,,,,,,,,,,,,,,,,,,,,,,,,,,,黒河,36.707556,137.111581,540.0
1,同江,9:00,Dep,,,,,,,,,,,,,,,,,,,,,,,,,,,,,,,,,,,,,,,,,,,,,同江,47.78564,133.1718339,540.0
1,石門,9:00,Arr,,,,,,,,,,,,,,,,,,,,,,,,,,,,,,,,,,,,,,,,,,,,,石門,29.8035578,111.122528,540.0
1,遜河,9:10,Arr,,,,,,,,,,,,,,,,,,,,,,,,,,,,,,,,,,,,,,,,,,,,,遜河,49.4565257,127.2557347,550.0
1,大邱,09:10,Dep,,,,,,,,,,,,,,,,,,,,,,,,,,,,,,,,,,,,,,,,,,,,,大邱,35.8713,128.6018,550.0
1,米原,9:16,Dep,,,,,,,,,,,,,,,,,,,,,,,,,,,,,,,,,,,,,,,,,,,,,米原,35.3150245,136.2895833,556.0
1,臺北,9:25,Dep,,,,,,,,,,,,,,,,,,,,,,,,,,,,,,,,,,,,,,,,,,,,,臺北,25.0479308,121.5170046,565.0
1,下關,9:25,Arr,,,,,,,,,,,,,,,,,,,,,,,,,,,,,,,,,,,,,,,,,,,,,下關,33.9577116,130.9415455,565.0
1,大東溝,9:30,Stop,,,,,,,,,,,,,,,,,,,,,,,,,,,,,,,,,,,,,,,,,,,,,大東溝,35.5633055,112.7033026,570.0
1,昂々溪,9:30,Arr,,,,,,,,,,,,,,,,,,,,,,,,,,,,,,,,,,,,,,,,,,,,,昂々溪,34.261004,108.9423363,570.0
1,蓮江口,9:30,Dep,,,,,,,,,,,,,,,,,,,,,,,,,,,,,,,,,,,,,,,,,,,,,蓮江口,46.870935,130.3143988,570.0
1,遜河,9:40,Dep,,,,,,,,,,,,,,,,,,,,,,,,,,,,,,,,,,,,,,,,,,,,,遜河,49.4565257,127.2557347,580.0
1,石門,9:40,Dep,,,,,,,,,,,,,,,,,,,,,,,,,,,,,,,,,,,,,,,,,,,,,石門,29.8035578,111.122528,580.0
1,張家口,9:40,Arr,,,,,,,,,,,,,,,,,,,,,,,,,,,,,,,,,,,,,,,,,,,,,張家口,40.8171433,114.8782861,580.0
1,佳木斯,9:50,Arr,,,,,,,,,,,,,,,,,,,,,,,,,,,,,,,,,,,,,,,,,,,,,佳木斯,47.02157,132.044137,590.0
1,張家口,9:50,Dep,,,,,,,,,,,,,,,,,,,,,,,,,,,,,,,,,,,,,,,,,,,,,張家口,40.8171433,114.8782861,590.0
1,小羅勒密,10:00,Dep,,,,,,,,,,,,,,,,,,,,,,,,,,,,,,,,,,,,,,,,,,,,,小羅勒密,,,600.0
1,佛山,10:00,Arr,,,,,,,,,,,,,,,,,,,,,,,,,,,,,,,,,,,,,,,,,,,,,佛山,23.0239788,113.1159558,600.0
1,海靑,10:00,Arr,,,,,,,,,,,,,,,,,,,,,,,,,,,,,,,,,,,,,,,,,,,,,海靑,47.8697234,134.6501722,600.0
1,京都,10:19,Dep,,,,,,,,,,,,,,,,,,,,,,,,,,,,,,,,,,,,,,,,,,,,,京都,34.9861909,135.7600629,619.0
1,佳木斯,10:20,Dep,,,,,,,,,,,,,,,,,,,,,,,,,,,,,,,,,,,,,,,,,,,,,佳木斯,47.02157,132.044137,620.0
1,金山鎮,10:30,Arr,,,,,,,,,,,,,,,,,,,,,,,,,,,,,,,,,,,,,,,,,,,,,金山鎮,36.7403065,118.2250976,630.0
1,卡倫山,10:30,Arr,,,,,,,,,,,,,,,,,,,,,,,,,,,,,,,,,,,,,,,,,,,,,卡倫山,48.2763418,16.333068,630.0
1,海靑,10:30,Dep,,,,,,,,,,,,,,,,,,,,,,,,,,,,,,,,,,,,,,,,,,,,,海靑,47.8697234,134.6501722,630.0
1,下關,10:30,Dep,,,,,,,,,,,,,,,,,,,,,,,,,,,,,,,,,,,,,,,,,,,,,下關,33.9577116,130.9415455,630.0
1,北京,10:30,Dep,,,,,,,,,,,,,,,,,,,,,,,,,,,,,,,,,,,,,,,,,,,,,北京,39.9057136,116.3912972,630.0
1,卡倫山,10:40,Dep,,,,,,,,,,,,,,,,,,,,,,,,,,,,,,,,,,,,,,,,,,,,,卡倫山,48.2763418,16.333068,640.0
1,彰德,10:40,Arr,,,,,,,,,,,,,,,,,,,,,,,,,,,,,,,,,,,,,,,,,,,,,彰德,30.466244,99.5750296,640.0
1,大同,10:50,Arr,,,,,,,,,,,,,,,,,,,,,,,,,,,,,,,,,,,,,,,,,,,,,大同,40.0923194,113.2952665,650.0
1,大阪,10:54,Arr,,,,,,,,,,,,,,,,,,,,,,,,,,,,,,,,,,,,,,,,,,,,,大阪,34.6937569,135.5014539,654.0
1,大同,10:55,Dep,,,,,,,,,,,,,,,,,,,,,,,,,,,,,,,,,,,,,,,,,,,,,大同,40.0923194,113.2952665,655.0
1,黒河,11:00,Dep,,,,,,,,,,,,,,,,,,,,,,,,,,,,,,,,,,,,,,,,,,,,,黒河,36.707556,137.111581,660.0
1,彰德,11:00,Dep,,,,,,,,,,,,,,,,,,,,,,,,,,,,,,,,,,,,,,,,,,,,,彰德,30.466244,99.5750296,660.0
1,新竹,11:03,Arr,,,,,,,,,,,,,,,,,,,,,,,,,,,,,,,,,,,,,,,,,,,,,新竹,24.8014026,120.971678,663.0
1,新竹,11:05,Dep,,,,,,,,,,,,,,,,,,,,,,,,,,,,,,,,,,,,,,,,,,,,,新竹,24.8014026,120.971678,665.0
1,方正,11:10,Arr,,,,,,,,,,,,,,,,,,,,,,,,,,,,,,,,,,,,,,,,,,,,,方正,45.8357401,128.8341092,670.0
1,天津,11:15,Arr,,,,,,,,,,,,,,,,,,,,,,,,,,,,,,,,,,,,,,,,,,,,,天津,39.3032619,117.4163641,675.0
1,天津,11:15,Dep,,,,,,,,,,,,,,,,,,,,,,,,,,,,,,,,,,,,,,,,,,,,,天津,39.3032619,117.4163641,675.0
1,佳木斯,11:20,Arr,,,,,,,,,,,,,,,,,,,,,,,,,,,,,,,,,,,,,,,,,,,,,佳木斯,47.02157,132.044137,680.0
1,璦琿,11:20,Arr,,,,,,,,,,,,,,,,,,,,,,,,,,,,,,,,,,,,,,,,,,,,,璦琿,50.0968842,126.8502818,680.0
1,舒蘭,11:30,Arr,,,,,,,,,,,,,,,,,,,,,,,,,,,,,,,,,,,,,,,,,,,,,舒蘭,44.299444,127.171944,690.0
1,京都,11:34,Arr,,,,,,,,,,,,,,,,,,,,,,,,,,,,,,,,,,,,,,,,,,,,,京都,34.9861909,135.7600629,694.0
1,佳木斯,11:40,Dep,,,,,,,,,,,,,,,,,,,,,,,,,,,,,,,,,,,,,,,,,,,,,佳木斯,47.02157,132.044137,700.0
1,方正,11:40,Dep,,,,,,,,,,,,,,,,,,,,,,,,,,,,,,,,,,,,,,,,,,,,,方正,45.8357401,128.8341092,700.0
1,璦琿,11:40,Dep,,,,,,,,,,,,,,,,,,,,,,,,,,,,,,,,,,,,,,,,,,,,,璦琿,50.0968842,126.8502818,700.0
1,新鄕,11:40,Arr,,,,,,,,,,,,,,,,,,,,,,,,,,,,,,,,,,,,,,,,,,,,,新鄕,35.308611,114.051111,700.0
1,新鄕,11:50,Dep,,,,,,,,,,,,,,,,,,,,,,,,,,,,,,,,,,,,,,,,,,,,,新鄕,35.308611,114.051111,710.0
1,大田,11:51,Dep,,,,,,,,,,,,,,,,,,,,,,,,,,,,,,,,,,,,,,,,,,,,,大田,36.3497007,127.3849016,711.0
1,大孤山,12:00,Stop,,,,,,,,,,,,,,,,,,,,,,,,,,,,,,,,,,,,,,,,,,,,,大孤山,39.0024586,121.8588318,720.0
1,作木,12:00,Arr,,,,,,,,,,,,,,,,,,,,,,,,,,,,,,,,,,,,,,,,,,,,,作木,35.2730777,139.9223394,720.0
1,扶餘,12:00,Arr,,,,,,,,,,,,,,,,,,,,,,,,,,,,,,,,,,,,,,,,,,,,,扶餘,38.2615347,140.8733818,720.0
1,名山,12:00,Arr,,,,,,,,,,,,,,,,,,,,,,,,,,,,,,,,,,,,,,,,,,,,,名山,30.119638,103.217364,720.0
1,厚和,12:00,Arr,,,,,,,,,,,,,,,,,,,,,,,,,,,,,,,,,,,,,,,,,,,,,厚和,21.8818002,112.4509156,720.0
1,開封,12:05,Arr,,,,,,,,,,,,,,,,,,,,,,,,,,,,,,,,,,,,,,,,,,,,,開封,34.604167,114.497222,725.0
1,厚和,12:05,Dep,,,,,,,,,,,,,,,,,,,,,,,,,,,,,,,,,,,,,,,,,,,,,厚和,21.8818002,112.4509156,725.0
1,濟南,12:25,Arr,,,,,,,,,,,,,,,,,,,,,,,,,,,,,,,,,,,,,,,,,,,,,濟南,36.6519754,117.1138479,745.0
1,鳥致院,12:29,Dep,,,,,,,,,,,,,,,,,,,,,,,,,,,,,,,,,,,,,,,,,,,,,鳥致院,36.60102,127.2958888,749.0
1,濟南,12:45,Dep,,,,,,,,,,,,,,,,,,,,,,,,,,,,,,,,,,,,,,,,,,,,,濟南,36.6519754,117.1138479,765.0
1,蓮江口,12:50,Arr,,,,,,,,,,,,,,,,,,,,,,,,,,,,,,,,,,,,,,,,,,,,,蓮江口,46.870935,130.3143988,770.0
1,大五家子,12:50,Arr,,,,,,,,,,,,,,,,,,,,,,,,,,,,,,,,,,,,,,,,,,,,,大五家子,42.1949764,121.3328642,770.0
1,天安,12:59,Dep,,,,,,,,,,,,,,,,,,,,,,,,,,,,,,,,,,,,,,,,,,,,,天安,36.8102804,127.14684,779.0
1,長春,13:00,Arr,,,,,,,,,,,,,,,,,,,,,,,,,,,,,,,,,,,,,,,,,,,,,長春,43.8844201,125.3180998,780.0
1,三岔河,13:00,Arr,,,,,,,,,,,,,,,,,,,,,,,,,,,,,,,,,,,,,,,,,,,,,三岔河,44.9850621,126.0184333,780.0
1,黒河,13:00,Dep,,,,,,,,,,,,,,,,,,,,,,,,,,,,,,,,,,,,,,,,,,,,,黒河,36.707556,137.111581,780.0
1,包頭,13:00,Arr,,,,,,,,,,,,,,,,,,,,,,,,,,,,,,,,,,,,,,,,,,,,,包頭,40.6040793,109.830185,780.0
1,大五家子,13:10,Dep,,,,,,,,,,,,,,,,,,,,,,,,,,,,,,,,,,,,,,,,,,,,,大五家子,42.1949764,121.3328642,790.0
1,蓮江口,13:20,Dep,,,,,,,,,,,,,,,,,,,,,,,,,,,,,,,,,,,,,,,,,,,,,蓮江口,46.870935,130.3143988,800.0
1,下馬廠,13:30,Arr,,,,,,,,,,,,,,,,,,,,,,,,,,,,,,,,,,,,,,,,,,,,,下馬廠,31.0192691,102.4180563,810.0
1,撫遠,13:30,Arr,,,,,,,,,,,,,,,,,,,,,,,,,,,,,,,,,,,,,,,,,,,,,撫遠,47.94063,134.2574179,810.0
1,沙二道河,13:40,Arr,,,,,,,,,,,,,,,,,,,,,,,,,,,,,,,,,,,,,,,,,,,,,沙二道河,,,820.0
1,下馬廠,13:40,Dep,,,,,,,,,,,,,,,,,,,,,,,,,,,,,,,,,,,,,,,,,,,,,下馬廠,31.0192691,102.4180563,820.0
1,徐州,13:55,Arr,,,,,,,,,,,,,,,,,,,,,,,,,,,,,,,,,,,,,,,,,,,,,徐州,34.2663951,117.2017621,835.0
1,哈爾濱,14:00,Dep,,,,,,,,,,,,,,,,,,,,,,,,,,,,,,,,,,,,,,,,,,,,,哈爾濱,45.7593633,126.6276177,840.0
1,名山,14:00,Dep,,,,,,,,,,,,,,,,,,,,,,,,,,,,,,,,,,,,,,,,,,,,,名山,30.119638,103.217364,840.0
1,佛山,14:00,Dep,,,,,,,,,,,,,,,,,,,,,,,,,,,,,,,,,,,,,,,,,,,,,佛山,23.0239788,113.1159558,840.0
1,沙二道河,14:10,Dep,,,,,,,,,,,,,,,,,,,,,,,,,,,,,,,,,,,,,,,,,,,,,沙二道河,,,850.0
1,徐州,14:15,Dep,,,,,,,,,,,,,,,,,,,,,,,,,,,,,,,,,,,,,,,,,,,,,徐州,34.2663951,117.2017621,855.0
1,莊河,14:20,Stop,,,,,,,,,,,,,,,,,,,,,,,,,,,,,,,,,,,,,,,,,,,,,莊河,39.6972967,122.9708389,860.0
1,四季屯,14:30,Arr,,,,,,,,,,,,,,,,,,,,,,,,,,,,,,,,,,,,,,,,,,,,,四季屯,40.2565838,116.6851852,870.0
1,撫遠,14:30,Dep,,,,,,,,,,,,,,,,,,,,,,,,,,,,,,,,,,,,,,,,,,,,,撫遠,47.94063,134.2574179,870.0
1,四季屯,14:40,Dep,,,,,,,,,,,,,,,,,,,,,,,,,,,,,,,,,,,,,,,,,,,,,四季屯,40.2565838,116.6851852,880.0
1,三姓,15:00,Arr,,,,,,,,,,,,,,,,,,,,,,,,,,,,,,,,,,,,,,,,,,,,,三姓,33.2102009,116.9193363,900.0
1,哈爾濱,15:00,Dep,,,,,,,,,,,,,,,,,,,,,,,,,,,,,,,,,,,,,,,,,,,,,哈爾濱,45.7593633,126.6276177,900.0
1,鷗桂,15:00,Arr,,,,,,,,,,,,,,,,,,,,,,,,,,,,,,,,,,,,,,,,,,,,,鷗桂,28.436051,102.708327,900.0
1,富源,15:00,Arr,,,,,,,,,,,,,,,,,,,,,,,,,,,,,,,,,,,,,,,,,,,,,富源,25.5103916,104.3320257,900.0
1,南京,15:25,Arr,,,,,,,,,,,,,,,,,,,,,,,,,,,,,,,,,,,,,,,,,,,,,南京,32.0438284,118.7788631,925.0
1,三姓,15:30,Dep,,,,,,,,,,,,,,,,,,,,,,,,,,,,,,,,,,,,,,,,,,,,,三姓,33.2102009,116.9193363,930.0
1,紅屯,15:30,Arr,,,,,,,,,,,,,,,,,,,,,,,,,,,,,,,,,,,,,,,,,,,,,紅屯,22.2958885,113.9362703,930.0
1,南京,15:45,Dep,,,,,,,,,,,,,,,,,,,,,,,,,,,,,,,,,,,,,,,,,,,,,南京,32.0438284,118.7788631,945.0
1,紅屯,15:50,Dep,,,,,,,,,,,,,,,,,,,,,,,,,,,,,,,,,,,,,,,,,,,,,紅屯,22.2958885,113.9362703,950.0
1,哈爾濱,16:00,Dep,,,,,,,,,,,,,,,,,,,,,,,,,,,,,,,,,,,,,,,,,,,,,哈爾濱,45.7593633,126.6276177,960.0
1,漠河,16:00,Arr,,,,,,,,,,,,,,,,,,,,,,,,,,,,,,,,,,,,,,,,,,,,,漠河,52.9759171,122.7933319,960.0
1,富源,16:00,Dep,,,,,,,,,,,,,,,,,,,,,,,,,,,,,,,,,,,,,,,,,,,,,富源,25.5103916,104.3320257,960.0
1,舒宏力,16:10,Arr,,,,,,,,,,,,,,,,,,,,,,,,,,,,,,,,,,,,,,,,,,,,,舒宏力,22.3794996,114.2113379,970.0
1,嘴巴子,16:20,Arr,,,,,,,,,,,,,,,,,,,,,,,,,,,,,,,,,,,,,,,,,,,,,嘴巴子,23.1903314,103.1419427,980.0
1,嘴巴子,16:30,Dep,,,,,,,,,,,,,,,,,,,,,,,,,,,,,,,,,,,,,,,,,,,,,嘴巴子,23.1903314,103.1419427,990.0
1,舒宏力,16:40,Dep,,,,,,,,,,,,,,,,,,,,,,,,,,,,,,,,,,,,,,,,,,,,,舒宏力,22.3794996,114.2113379,1000.0
1,上海,16:45,Arr,,,,,,,,,,,,,,,,,,,,,,,,,,,,,,,,,,,,,,,,,,,,,上海,31.2312707,121.4700152,1005.0
1,佳木斯,17:00,Dep,,,,,,,,,,,,,,,,,,,,,,,,,,,,,,,,,,,,,,,,,,,,,佳木斯,47.02157,132.044137,1020.0
1,黒河,17:00,Arr,,,,,,,,,,,,,,,,,,,,,,,,,,,,,,,,,,,,,,,,,,,,,黒河,36.707556,137.111581,1020.0
1,張家地,17:00,Arr,,,,,,,,,,,,,,,,,,,,,,,,,,,,,,,,,,,,,,,,,,,,,張家地,41.3347939,113.6085662,1020.0
1,新設營,17:10,Arr,,,,,,,,,,,,,,,,,,,,,,,,,,,,,,,,,,,,,,,,,,,,,新設營,1.2998033,103.8520187,1030.0
1,奉天,17:20,Dep,,,,,,,,,,,,,,,,,,,,,,,,,,,,,,,,,,,,,,,,,,,,,奉天,41.7924481,123.3879307,1040.0
1,新設營,17:40,Dep,,,,,,,,,,,,,,,,,,,,,,,,,,,,,,,,,,,,,,,,,,,,,新設營,1.2998033,103.8520187,1060.0
1,肇源,18:00,Arr,,,,,,,,,,,,,,,,,,,,,,,,,,,,,,,,,,,,,,,,,,,,,肇源,45.611428,124.83788,1080.0
1,寶島,18:00,Arr,,,,,,,,,,,,,,,,,,,,,,,,,,,,,,,,,,,,,,,,,,,,,寶島,29.142973,129.2078395,1080.0
1,佳木斯,18:00,Dep,,,,,,,,,,,,,,,,,,,,,,,,,,,,,,,,,,,,,,,,,,,,,佳木斯,47.02157,132.044137,1080.0
1,饒河,18:00,Arr,,,,,,,,,,,,,,,,,,,,,,,,,,,,,,,,,,,,,,,,,,,,,饒河,47.1302804,133.6179888,1080.0
1,鐵嶺,18:18,Arr,,,,,,,,,,,,,,,,,,,,,,,,,,,,,,,,,,,,,,,,,,,,,鐵嶺,42.2895233,123.8394899,1098.0
1,木蘭,18:20,Arr,,,,,,,,,,,,,,,,,,,,,,,,,,,,,,,,,,,,,,,,,,,,,木蘭,45.9490304,128.0377468,1100.0
1,宏克,18:20,Arr,,,,,,,,,,,,,,,,,,,,,,,,,,,,,,,,,,,,,,,,,,,,,宏克,40.1869283,-3.7769069,1100.0
1,巴彦,18:30,Arr,,,,,,,,,,,,,,,,,,,,,,,,,,,,,,,,,,,,,,,,,,,,,巴彦,46.3172426,127.3588535,1110.0
1,富錦,18:30,Arr,,,,,,,,,,,,,,,,,,,,,,,,,,,,,,,,,,,,,,,,,,,,,富錦,47.174394,132.516788,1110.0
1,乾岔子,18:30,Arr,,,,,,,,,,,,,,,,,,,,,,,,,,,,,,,,,,,,,,,,,,,,,乾岔子,43.24146,127.17534,1110.0
1,開原,18:48,Arr,,,,,,,,,,,,,,,,,,,,,,,,,,,,,,,,,,,,,,,,,,,,,開原,42.4067626,124.245093,1128.0
1,乾岔子,18:50,Dep,,,,,,,,,,,,,,,,,,,,,,,,,,,,,,,,,,,,,,,,,,,,,乾岔子,43.24146,127.17534,1130.0
1,安東,19:00,Dep,,,,,,,,,,,,,,,,,,,,,,,,,,,,,,,,,,,,,,,,,,,,,安東,40.1237658,124.3821748,1140.0
1,巴彦,19:00,Dep,,,,,,,,,,,,,,,,,,,,,,,,,,,,,,,,,,,,,,,,,,,,,巴彦,46.3172426,127.3588535,1140.0
1,馬林,19:00,Arr,,,,,,,,,,,,,,,,,,,,,,,,,,,,,,,,,,,,,,,,,,,,,馬林,50.7677902,29.2414346,1140.0
1,張家地,19:00,Arr,,,,,,,,,,,,,,,,,,,,,,,,,,,,,,,,,,,,,,,,,,,,,張家地,41.3347939,113.6085662,1140.0
1,木蘭,19:20,Dep,,,,,,,,,,,,,,,,,,,,,,,,,,,,,,,,,,,,,,,,,,,,,木蘭,45.9490304,128.0377468,1160.0
1,樺川,19:20,Arr,,,,,,,,,,,,,,,,,,,,,,,,,,,,,,,,,,,,,,,,,,,,,樺川,47.0439159,130.8779418,1160.0
1,石頭河子,19:30,Arr,,,,,,,,,,,,,,,,,,,,,,,,,,,,,,,,,,,,,,,,,,,,,石頭河子,44.8685,128.687,1170.0
1,宏克,19:30,Dep,,,,,,,,,,,,,,,,,,,,,,,,,,,,,,,,,,,,,,,,,,,,,宏克,40.1869283,-3.7769069,1170.0
1,鳳凰城,19:47,Dep,,,,,,,,,,,,,,,,,,,,,,,,,,,,,,,,,,,,,,,,,,,,,鳳凰城,22.7504601,113.9280264,1187.0
1,樺川,19:50,Dep,,,,,,,,,,,,,,,,,,,,,,,,,,,,,,,,,,,,,,,,,,,,,樺川,47.0439159,130.8779418,1190.0
1,石頭河子,20:00,Dep,,,,,,,,,,,,,,,,,,,,,,,,,,,,,,,,,,,,,,,,,,,,,石頭河子,44.8685,128.687,1200.0
1,奇克特,20:00,Arr,,,,,,,,,,,,,,,,,,,,,,,,,,,,,,,,,,,,,,,,,,,,,奇克特,43.0535329,17.6499111,1200.0
1,東安,20:00,Arr,,,,,,,,,,,,,,,,,,,,,,,,,,,,,,,,,,,,,,,,,,,,,東安,26.5209952,111.3769459,1200.0
1,饒河,20:00,Dep,,,,,,,,,,,,,,,,,,,,,,,,,,,,,,,,,,,,,,,,,,,,,饒河,47.1302804,133.6179888,1200.0
1,四平街,20:04,Arr,,,,,,,,,,,,,,,,,,,,,,,,,,,,,,,,,,,,,,,,,,,,,四平街,43.1669821,124.364739,1204.0
1,竹大營,20:30,Arr,,,,,,,,,,,,,,,,,,,,,,,,,,,,,,,,,,,,,,,,,,,,,竹大營,33.278047,113.7403239,1230.0
1,樺川,20:30,Arr,,,,,,,,,,,,,,,,,,,,,,,,,,,,,,,,,,,,,,,,,,,,,樺川,47.0439159,130.8779418,1230.0
1,集賢,20:30,Arr,,,,,,,,,,,,,,,,,,,,,,,,,,,,,,,,,,,,,,,,,,,,,集賢,46.798313,131.179367,1230.0
1,東安,20:30,Dep,,,,,,,,,,,,,,,,,,,,,,,,,,,,,,,,,,,,,,,,,,,,,東安,26.5209952,111.3769459,1230.0
1,橋頭,20:49,Dep,,,,,,,,,,,,,,,,,,,,,,,,,,,,,,,,,,,,,,,,,,,,,橋頭,22.761088,120.3102143,1249.0
1,公主嶺,20:51,Arr,,,,,,,,,,,,,,,,,,,,,,,,,,,,,,,,,,,,,,,,,,,,,公主嶺,43.7703784,124.7656749,1251.0
1,竹大營,21:00,Dep,,,,,,,,,,,,,,,,,,,,,,,,,,,,,,,,,,,,,,,,,,,,,竹大營,33.278047,113.7403239,1260.0
1,大賚,21:00,Arr,,,,,,,,,,,,,,,,,,,,,,,,,,,,,,,,,,,,,,,,,,,,,大賚,45.5014236,124.2729048,1260.0
1,三湖通,21:00,Arr,,,,,,,,,,,,,,,,,,,,,,,,,,,,,,,,,,,,,,,,,,,,,三湖通,31.8346021,117.9680532,1260.0
1,樺川,21:00,Dep,,,,,,,,,,,,,,,,,,,,,,,,,,,,,,,,,,,,,,,,,,,,,樺川,47.0439159,130.8779418,1260.0
1,集賢,21:00,Dep,,,,,,,,,,,,,,,,,,,,,,,,,,,,,,,,,,,,,,,,,,,,,集賢,46.798313,131.179367,1260.0
1,本溪湖,21:15,Dep,,,,,,,,,,,,,,,,,,,,,,,,,,,,,,,,,,,,,,,,,,,,,本溪湖,41.325548,123.761778,1275.0
1,奇克,21:30,Arr,,,,,,,,,,,,,,,,,,,,,,,,,,,,,,,,,,,,,,,,,,,,,奇克,49.5685967,128.4691505,1290.0
1,奉天,21:45,Arr,,,,,,,,,,,,,,,,,,,,,,,,,,,,,,,,,,,,,,,,,,,,,奉天,41.7924481,123.3879307,1305.0
1,新京,21:45,Arr,,,,,,,,,,,,,,,,,,,,,,,,,,,,,,,,,,,,,,,,,,,,,新京,43.9088384,125.3177297,1305.0
1,奇蘭,22:00,Arr,,,,,,,,,,,,,,,,,,,,,,,,,,,,,,,,,,,,,,,,,,,,,奇蘭,24.6018801,121.5158245,1320.0
1,大湯崗,22:00,Arr,,,,,,,,,,,,,,,,,,,,,,,,,,,,,,,,,,,,,,,,,,,,,大湯崗,28.6177048,118.5946064,1320.0
1,饒河,22:00,Arr,,,,,,,,,,,,,,,,,,,,,,,,,,,,,,,,,,,,,,,,,,,,,饒河,47.1302804,133.6179888,1320.0
1,新設營,22:20,Arr,,,,,,,,,,,,,,,,,,,,,,,,,,,,,,,,,,,,,,,,,,,,,新設營,1.2998033,103.8520187,1340.0
1,奇蘭,22:30,Dep,,,,,,,,,,,,,,,,,,,,,,,,,,,,,,,,,,,,,,,,,,,,,奇蘭,24.6018801,121.5158245,1350.0
1,大湯崗,22:30,Dep,,,,,,,,,,,,,,,,,,,,,,,,,,,,,,,,,,,,,,,,,,,,,大湯崗,28.6177048,118.5946064,1350.0
1,饒河,22:30,Dep,,,,,,,,,,,,,,,,,,,,,,,,,,,,,,,,,,,,,,,,,,,,,饒河,47.1302804,133.6179888,1350.0
1,通三,22:40,Arr,,,,,,,,,,,,,,,,,,,,,,,,,,,,,,,,,,,,,,,,,,,,,通三,43.040652,141.400266,1360.0
1,葦子溝,22:40,Arr,,,,,,,,,,,,,,,,,,,,,,,,,,,,,,,,,,,,,,,,,,,,,葦子溝,44.2110005,125.8616053,1360.0
1,新設營,22:50,Dep,,,,,,,,,,,,,,,,,,,,,,,,,,,,,,,,,,,,,,,,,,,,,新設營,1.2998033,103.8520187,1370.0
1,三湖通,23:00,Arr,,,,,,,,,,,,,,,,,,,,,,,,,,,,,,,,,,,,,,,,,,,,,三湖通,31.8346021,117.9680532,1380.0
1,柳樹河,23:10,Arr,,,,,,,,,,,,,,,,,,,,,,,,,,,,,,,,,,,,,,,,,,,,,柳樹河,31.111197,115.186386,1390.0
1,葦子溝,23:10,Dep,,,,,,,,,,,,,,,,,,,,,,,,,,,,,,,,,,,,,,,,,,,,,葦子溝,44.2110005,125.8616053,1390.0
1,通三,23:40,Dep,,,,,,,,,,,,,,,,,,,,,,,,,,,,,,,,,,,,,,,,,,,,,通三,43.040652,141.400266,1420.0
1,柳樹河,23:40,Dep,,,,,,,,,,,,,,,,,,,,,,,,,,,,,,,,,,,,,,,,,,,,,柳樹河,31.111197,115.186386,1420.0
1,江口,23:50,Arr,,,,,,,,,,,,,,,,,,,,,,,,,,,,,,,,,,,,,,,,,,,,,江口,27.8036782,108.7689072,1430.0
1,新設營,24:00,Arr,,,,,,,,,,,,,,,,,,,,,,,,,,,,,,,,,,,,,,,,,,,,,新設營,1.2998033,103.8520187,1440.0
1,獅子窩驛,8.00,Dep,,,,,,,,,,,,,,,,,,,,,,,,,,,,,,,,,,,,,,,,,,,,,獅子窩驛,39.002994,113.4987098,
1,普蘭店驛,9.30,Arr,,,,,,,,,,,,,,,,,,,,,,,,,,,,,,,,,,,,,,,,,,,,,普蘭店驛,39.4035058,121.9678453,
1,石家臺,8.00,Dep,,,,,,,,,,,,,,,,,,,,,,,,,,,,,,,,,,,,,,,,,,,,,石家臺,34.4249886,104.2730874,
1,孤家子,8.17,Dep,,,,,,,,,,,,,,,,,,,,,,,,,,,,,,,,,,,,,,,,,,,,,孤家子,41.1888873,120.6872429,
1,開原堡,8.38,Dep,,,,,,,,,,,,,,,,,,,,,,,,,,,,,,,,,,,,,,,,,,,,,開原堡,23.0102003,120.223496,
1,雙樹村,9.05,Dep,,,,,,,,,,,,,,,,,,,,,,,,,,,,,,,,,,,,,,,,,,,,,雙樹村,38.3815536,116.2521697,
1,店子,9.38,Dep,,,,,,,,,,,,,,,,,,,,,,,,,,,,,,,,,,,,,,,,,,,,,店子,31.9188415,105.5974482,
1,楊陽堡,10.04,Dep,,,,,,,,,,,,,,,,,,,,,,,,,,,,,,,,,,,,,,,,,,,,,楊陽堡,52.6055461,39.5949843,
1,家滿堡,10.20,Dep,,,,,,,,,,,,,,,,,,,,,,,,,,,,,,,,,,,,,,,,,,,,,家滿堡,25.0900695,121.5256334,
1,甘大西,10.36,Dep,,,,,,,,,,,,,,,,,,,,,,,,,,,,,,,,,,,,,,,,,,,,,甘大西,34.0661031,132.9291502,
1,西豐,11.00,Arr,,,,,,,,,,,,,,,,,,,,,,,,,,,,,,,,,,,,,,,,,,,,,西豐,42.7482794,124.7026314,
1,天理村,8.30,Dep,,,,,,,,,,,,,,,,,,,,,,,,,,,,,,,,,,,,,,,,,,,,,天理村,43.7726252,120.1353921,
1,西天理村,8.50,Dep,,,,,,,,,,,,,,,,,,,,,,,,,,,,,,,,,,,,,,,,,,,,,西天理村,34.2533651,132.5843994,
1,何店子,9.28,Dep,,,,,,,,,,,,,,,,,,,,,,,,,,,,,,,,,,,,,,,,,,,,,何店子,34.5358,111.406,
1,和險,9.35,↓,,,,,,,,,,,,,,,,,,,,,,,,,,,,,,,,,,,,,,,,,,,,,和險,31.7442532,118.3481305,
1,樺皮廠,9.42,↓,,,,,,,,,,,,,,,,,,,,,,,,,,,,,,,,,,,,,,,,,,,,,樺皮廠,43.9830965,126.2235839,
1,三棵樹,10.15,Arr,,,,,,,,,,,,,,,,,,,,,,,,,,,,,,,,,,,,,,,,,,,,,三棵樹,45.787419,126.7029173,
1,天理村,9.00,Dep,,,,,,,,,,,,,,,,,,,,,,,,,,,,,,,,,,,,,,,,,,,,,天理村,43.7726252,120.1353921,
1,西天理村,9.10,Dep,,,,,,,,,,,,,,,,,,,,,,,,,,,,,,,,,,,,,,,,,,,,,西天理村,34.2533651,132.5843994,
1,何店子,9.23,Dep,,,,,,,,,,,,,,,,,,,,,,,,,,,,,,,,,,,,,,,,,,,,,何店子,34.5358,111.406,
1,樺皮廠,9.42,Dep,,,,,,,,,,,,,,,,,,,,,,,,,,,,,,,,,,,,,,,,,,,,,樺皮廠,43.9830965,126.2235839,
1,三棵樹,10.06,Arr,,,,,,,,,,,,,,,,,,,,,,,,,,,,,,,,,,,,,,,,,,,,,三棵樹,45.787419,126.7029173,
1,花蓮港,6.00,Dep,,,,,,,,,,,,,,,,,,,,,,,,,,,,,,,,,,,,,,,,,,,,,花蓮港,23.9877858,121.634328,
1,里東,10.23,Arr,,,,,,,,,,,,,,,,,,,,,,,,,,,,,,,,,,,,,,,,,,,,,里東,23.6261754,108.4476933,
1,大連,50.25,Fare,,,,,,,,,,,,,,,,,,,,,,,,,,,,,,,,,,,,,,,,,,,,,大連,38.9130495,121.6098013,
1,奉天,34.15,Fare,,,,,,,,,,,,,,,,,,,,,,,,,,,,,,,,,,,,,,,,,,,,,奉天,41.7924481,123.3879307,
1,新京,47.57,Fare,,,,,,,,,,,,,,,,,,,,,,,,,,,,,,,,,,,,,,,,,,,,,新京,43.9088384,125.3177297,
1,哈爾賓,59.67,Fare,,,,,,,,,,,,,,,,,,,,,,,,,,,,,,,,,,,,,,,,,,,,,哈爾賓,45.7593633,126.6276177,
1,安東,22.00,Fare,,,,,,,,,,,,,,,,,,,,,,,,,,,,,,,,,,,,,,,,,,,,,安東,40.1237658,124.3821748,
1,大連,70.05,Fare,,,,,,,,,,,,,,,,,,,,,,,,,,,,,,,,,,,,,,,,,,,,,大連,38.9130495,121.6098013,
1,奉天,53.95,Fare,,,,,,,,,,,,,,,,,,,,,,,,,,,,,,,,,,,,,,,,,,,,,奉天,41.7924481,123.3879307,
1,新京,67.37,Fare,,,,,,,,,,,,,,,,,,,,,,,,,,,,,,,,,,,,,,,,,,,,,新京,43.9088384,125.3177297,
1,哈爾賓,79.47,Fare,,,,,,,,,,,,,,,,,,,,,,,,,,,,,,,,,,,,,,,,,,,,,哈爾賓,45.7593633,126.6276177,
1,安東,41.80,Fare,,,,,,,,,,,,,,,,,,,,,,,,,,,,,,,,,,,,,,,,,,,,,安東,40.1237658,124.3821748,
1,大連,82.20,Fare,,,,,,,,,,,,,,,,,,,,,,,,,,,,,,,,,,,,,,,,,,,,,大連,38.9130495,121.6098013,
1,奉天,66.10,Fare,,,,,,,,,,,,,,,,,,,,,,,,,,,,,,,,,,,,,,,,,,,,,奉天,41.7924481,123.3879307,
1,新京,79.52,Fare,,,,,,,,,,,,,,,,,,,,,,,,,,,,,,,,,,,,,,,,,,,,,新京,43.9088384,125.3177297,
1,哈爾賓,91.62,Fare,,,,,,,,,,,,,,,,,,,,,,,,,,,,,,,,,,,,,,,,,,,,,哈爾賓,45.7593633,126.6276177,
1,安東,53.95,Fare,,,,,,,,,,,,,,,,,,,,,,,,,,,,,,,,,,,,,,,,,,,,,安東,40.1237658,124.3821748,
1,大連,93.00,Fare,,,,,,,,,,,,,,,,,,,,,,,,,,,,,,,,,,,,,,,,,,,,,大連,38.9130495,121.6098013,
1,奉天,82.90,Fare,,,,,,,,,,,,,,,,,,,,,,,,,,,,,,,,,,,,,,,,,,,,,奉天,41.7924481,123.3879307,
1,新京,96.32,Fare,,,,,,,,,,,,,,,,,,,,,,,,,,,,,,,,,,,,,,,,,,,,,新京,43.9088384,125.3177297,
1,哈爾賓,108.42,Fare,,,,,,,,,,,,,,,,,,,,,,,,,,,,,,,,,,,,,,,,,,,,,哈爾賓,45.7593633,126.6276177,
1,安東,70.75,Fare,,,,,,,,,,,,,,,,,,,,,,,,,,,,,,,,,,,,,,,,,,,,,安東,40.1237658,124.3821748,
1,大連,99.75,Fare,,,,,,,,,,,,,,,,,,,,,,,,,,,,,,,,,,,,,,,,,,,,,大連,38.9130495,121.6098013,
1,奉天,83.65,Fare,,,,,,,,,,,,,,,,,,,,,,,,,,,,,,,,,,,,,,,,,,,,,奉天,41.7924481,123.3879307,
1,新京,97.07,Fare,,,,,,,,,,,,,,,,,,,,,,,,,,,,,,,,,,,,,,,,,,,,,新京,43.9088384,125.3177297,
1,哈爾賓,109.17,Fare,,,,,,,,,,,,,,,,,,,,,,,,,,,,,,,,,,,,,,,,,,,,,哈爾賓,45.7593633,126.6276177,
1,安東,71.50,Fare,,,,,,,,,,,,,,,,,,,,,,,,,,,,,,,,,,,,,,,,,,,,,安東,40.1237658,124.3821748,
1,大連,100.65,Fare,,,,,,,,,,,,,,,,,,,,,,,,,,,,,,,,,,,,,,,,,,,,,大連,38.9130495,121.6098013,
1,奉天,84.55,Fare,,,,,,,,,,,,,,,,,,,,,,,,,,,,,,,,,,,,,,,,,,,,,奉天,41.7924481,123.3879307,
1,新京,97.97,Fare,,,,,,,,,,,,,,,,,,,,,,,,,,,,,,,,,,,,,,,,,,,,,新京,43.9088384,125.3177297,
1,哈爾賓,110.07,Fare,,,,,,,,,,,,,,,,,,,,,,,,,,,,,,,,,,,,,,,,,,,,,哈爾賓,45.7593633,126.6276177,
1,安東,72.40,Fare,,,,,,,,,,,,,,,,,,,,,,,,,,,,,,,,,,,,,,,,,,,,,安東,40.1237658,124.3821748,
1,大連,103.80,Fare,,,,,,,,,,,,,,,,,,,,,,,,,,,,,,,,,,,,,,,,,,,,,大連,38.9130495,121.6098013,
1,奉天,87.70,Fare,,,,,,,,,,,,,,,,,,,,,,,,,,,,,,,,,,,,,,,,,,,,,奉天,41.7924481,123.3879307,
1,新京,101.12,Fare,,,,,,,,,,,,,,,,,,,,,,,,,,,,,,,,,,,,,,,,,,,,,新京,43.9088384,125.3177297,
1,哈爾賓,113.22,Fare,,,,,,,,,,,,,,,,,,,,,,,,,,,,,,,,,,,,,,,,,,,,,哈爾賓,45.7593633,126.6276177,
1,安東,75.55,Fare,,,,,,,,,,,,,,,,,,,,,,,,,,,,,,,,,,,,,,,,,,,,,安東,40.1237658,124.3821748,
1,大連,110.85,Fare,,,,,,,,,,,,,,,,,,,,,,,,,,,,,,,,,,,,,,,,,,,,,大連,38.9130495,121.6098013,
1,奉天,94.75,Fare,,,,,,,,,,,,,,,,,,,,,,,,,,,,,,,,,,,,,,,,,,,,,奉天,41.7924481,123.3879307,
1,新京,108.17,Fare,,,,,,,,,,,,,,,,,,,,,,,,,,,,,,,,,,,,,,,,,,,,,新京,43.9088384,125.3177297,
1,哈爾賓,120.27,Fare,,,,,,,,,,,,,,,,,,,,,,,,,,,,,,,,,,,,,,,,,,,,,哈爾賓,45.7593633,126.6276177,
1,安東,82.60,Fare,,,,,,,,,,,,,,,,,,,,,,,,,,,,,,,,,,,,,,,,,,,,,安東,40.1237658,124.3821748,
1,大連,82.30,Fare,,,,,,,,,,,,,,,,,,,,,,,,,,,,,,,,,,,,,,,,,,,,,大連,38.9130495,121.6098013,
1,奉天,66.20,Fare,,,,,,,,,,,,,,,,,,,,,,,,,,,,,,,,,,,,,,,,,,,,,奉天,41.7924481,123.3879307,
1,新京,79.62,Fare,,,,,,,,,,,,,,,,,,,,,,,,,,,,,,,,,,,,,,,,,,,,,新京,43.9088384,125.3177297,
1,哈爾賓,91.72,Fare,,,,,,,,,,,,,,,,,,,,,,,,,,,,,,,,,,,,,,,,,,,,,哈爾賓,45.7593633,126.6276177,
1,安東,54.05,Fare,,,,,,,,,,,,,,,,,,,,,,,,,,,,,,,,,,,,,,,,,,,,,安東,40.1237658,124.3821748,
1,大連,x84.70,Fare,,,,,,,,,,,,,,,,,,,,,,,,,,,,,,,,,,,,,,,,,,,,,大連,38.9130495,121.6098013,
1,奉天,x68.60,Fare,,,,,,,,,,,,,,,,,,,,,,,,,,,,,,,,,,,,,,,,,,,,,奉天,41.7924481,123.3879307,
1,新京,x82.02,Fare,,,,,,,,,,,,,,,,,,,,,,,,,,,,,,,,,,,,,,,,,,,,,新京,43.9088384,125.3177297,
1,哈爾賓,x94.12,Fare,,,,,,,,,,,,,,,,,,,,,,,,,,,,,,,,,,,,,,,,,,,,,哈爾賓,45.7593633,126.6276177,
1,安東,x56.45,Fare,,,,,,,,,,,,,,,,,,,,,,,,,,,,,,,,,,,,,,,,,,,,,安東,40.1237658,124.3821748,
1,大連,x88.60,Fare,,,,,,,,,,,,,,,,,,,,,,,,,,,,,,,,,,,,,,,,,,,,,大連,38.9130495,121.6098013,
1,奉天,x72.50,Fare,,,,,,,,,,,,,,,,,,,,,,,,,,,,,,,,,,,,,,,,,,,,,奉天,41.7924481,123.3879307,
1,新京,x85.92,Fare,,,,,,,,,,,,,,,,,,,,,,,,,,,,,,,,,,,,,,,,,,,,,新京,43.9088384,125.3177297,
1,哈爾賓,x98.02,Fare,,,,,,,,,,,,,,,,,,,,,,,,,,,,,,,,,,,,,,,,,,,,,哈爾賓,45.7593633,126.6276177,
1,安東,x60.35,Fare,,,,,,,,,,,,,,,,,,,,,,,,,,,,,,,,,,,,,,,,,,,,,安東,40.1237658,124.3821748,
1,大連,x91.40,Fare,,,,,,,,,,,,,,,,,,,,,,,,,,,,,,,,,,,,,,,,,,,,,大連,38.9130495,121.6098013,
1,奉天,x75.30,Fare,,,,,,,,,,,,,,,,,,,,,,,,,,,,,,,,,,,,,,,,,,,,,奉天,41.7924481,123.3879307,
1,新京,x88.72,Fare,,,,,,,,,,,,,,,,,,,,,,,,,,,,,,,,,,,,,,,,,,,,,新京,43.9088384,125.3177297,
1,哈爾賓,x100.82,Fare,,,,,,,,,,,,,,,,,,,,,,,,,,,,,,,,,,,,,,,,,,,,,哈爾賓,45.7593633,126.6276177,
1,安東,x63.15,Fare,,,,,,,,,,,,,,,,,,,,,,,,,,,,,,,,,,,,,,,,,,,,,安東,40.1237658,124.3821748,
1,上海,19.00,Dep,,,,,,,,,,,,,,,,,,,,,,,,,,,,,,,,,,,,,,,,,,,,,上海,31.2312707,121.4700152,
1,蘇州,20.29,Dep,,,,,,,,,,,,,,,,,,,,,,,,,,,,,,,,,,,,,,,,,,,,,蘇州,31.311123,120.6212881,
1,無錫,21.05,Dep,,,,,,,,,,,,,,,,,,,,,,,,,,,,,,,,,,,,,,,,,,,,,無錫,31.5776626,120.2952752,
1,常州,21.44,Dep,,,,,,,,,,,,,,,,,,,,,,,,,,,,,,,,,,,,,,,,,,,,,常州,31.8122623,119.9691539,
1,鎮江,22.44,Dep,,,,,,,,,,,,,,,,,,,,,,,,,,,,,,,,,,,,,,,,,,,,,鎮江,32.1891959,119.4200069,
1,南京,0.20,Arr,,,,,,,,,,,,,,,,,,,,,,,,,,,,,,,,,,,,,,,,,,,,,南京,32.0438284,118.7788631,
1,雞冠山,↓,Pass,,,,,,,,,,,,,,,,,,,,,,,,,,,,,,,,,,,,,,,,,,,,,雞冠山,40.5182364,123.9176355,
1,蘇家屯,↓,Pass,,,,,,,,,,,,,,,,,,,,,,,,,,,,,,,,,,,,,,,,,,,,,蘇家屯,41.6626981,123.3379327,
1,清津,8.00,Dep,,,,,,,,,,,,,,,,,,,,,,,,,,,,,,,,,,,,,,,,,,,,,清津,13.0836939,80.270186,
1,羅津,10.29,Dep,,,,,,,,,,,,,,,,,,,,,,,,,,,,,,,,,,,,,,,,,,,,,羅津,42.2486015,130.2908966,
1,先鋒,12.35,Dep,,,,,,,,,,,,,,,,,,,,,,,,,,,,,,,,,,,,,,,,,,,,,先鋒,31.628819,106.2920153,
1,雄基,1.19,Arr,,,,,,,,,,,,,,,,,,,,,,,,,,,,,,,,,,,,,,,,,,,,,雄基,30.3956576,94.3456185,
1,羅津,8.20,Dep,,,,,,,,,,,,,,,,,,,,,,,,,,,,,,,,,,,,,,,,,,,,,羅津,42.2486015,130.2908966,
1,清津,10.31,Arr,,,,,,,,,,,,,,,,,,,,,,,,,,,,,,,,,,,,,,,,,,,,,清津,13.0836939,80.270186,
1,作木,↓,Pass,,,,,,,,,,,,,,,,,,,,,,,,,,,,,,,,,,,,,,,,,,,,,作木,35.2730777,139.9223394,
1,朝陽縣,9.08,Dep,,,,,,,,,,,,,,,,,,,,,,,,,,,,,,,,,,,,,,,,,,,,,朝陽縣,41.4562357,120.4007804,
1,老虎山,11.10,Pass,,,,,,,,,,,,,,,,,,,,,,,,,,,,,,,,,,,,,,,,,,,,,老虎山,28.705965,121.917253,
1,建平,12.45,Arr,,,,,,,,,,,,,,,,,,,,,,,,,,,,,,,,,,,,,,,,,,,,,建平,41.8245142,119.6581838,
1,草梁,↓,Pass,,,,,,,,,,,,,,,,,,,,,,,,,,,,,,,,,,,,,,,,,,,,,草梁,35.121181,129.0430303,
1,釜山鎮,↓,Pass,,,,,,,,,,,,,,,,,,,,,,,,,,,,,,,,,,,,,,,,,,,,,釜山鎮,35.1252494,129.0490798,
1,密陽,↓,Pass,,,,,,,,,,,,,,,,,,,,,,,,,,,,,,,,,,,,,,,,,,,,,密陽,35.4748507,128.7714177,
1,清道,↓,Pass,,,,,,,,,,,,,,,,,,,,,,,,,,,,,,,,,,,,,,,,,,,,,清道,35.6398546,128.7461654,
1,若館,↓,Pass,,,,,,,,,,,,,,,,,,,,,,,,,,,,,,,,,,,,,,,,,,,,,若館,31.140894,97.1809697,
1,金泉,↓,Pass,,,,,,,,,,,,,,,,,,,,,,,,,,,,,,,,,,,,,,,,,,,,,金泉,36.1238437,128.115032,
1,永同,↓,Pass,,,,,,,,,,,,,,,,,,,,,,,,,,,,,,,,,,,,,,,,,,,,,永同,25.1821951,110.6079015,
1,水原,↓,Pass,,,,,,,,,,,,,,,,,,,,,,,,,,,,,,,,,,,,,,,,,,,,,水原,37.2662775,127.0004098,
1,琿春,7.20,Dep,,,,,,,,,,,,,,,,,,,,,,,,,,,,,,,,,,,,,,,,,,,,,琿春,42.9899308,130.4643291,
1,土門子,12.15,Arr,,,,,,,,,,,,,,,,,,,,,,,,,,,,,,,,,,,,,,,,,,,,,土門子,40.47711,119.1867078,
1,東興鎮,12.30,Arr,,,,,,,,,,,,,,,,,,,,,,,,,,,,,,,,,,,,,,,,,,,,,東興鎮,46.3773144,127.8664385,
1,東京,3.00,Dep,,,,,,,,,,,,,,,,,,,,,,,,,,,,,,,,,,,,,,,,,,,,,東京,35.6768601,139.7638947,
1,名古屋,8.32,Dep,,,,,,,,,,,,,,,,,,,,,,,,,,,,,,,,,,,,,,,,,,,,,名古屋,35.1707285,136.8818431,
1,京都,10.53,Dep,,,,,,,,,,,,,,,,,,,,,,,,,,,,,,,,,,,,,,,,,,,,,京都,34.9861909,135.7600629,
1,大阪,11.34,Dep,,,,,,,,,,,,,,,,,,,,,,,,,,,,,,,,,,,,,,,,,,,,,大阪,34.6937569,135.5014539,
1,三ノ宮,1.23,Dep,,,,,,,,,,,,,,,,,,,,,,,,,,,,,,,,,,,,,,,,,,,,,三ノ宮,34.6948605,135.1950871,
1,神戸,1.27,Dep,,,,,,,,,,,,,,,,,,,,,,,,,,,,,,,,,,,,,,,,,,,,,神戸,34.6792884,135.1782824,
1,明石,1.33,Dep,,,,,,,,,,,,,,,,,,,,,,,,,,,,,,,,,,,,,,,,,,,,,明石,34.6491038,134.9927483,
1,姫路,2.58,Dep,,,,,,,,,,,,,,,,,,,,,,,,,,,,,,,,,,,,,,,,,,,,,姫路,34.8269005,134.6902424,
1,岡山,2.28,Dep,,,,,,,,,,,,,,,,,,,,,,,,,,,,,,,,,,,,,,,,,,,,,岡山,34.6667504,133.9182664,
1,倉敷,2.33,Dep,,,,,,,,,,,,,,,,,,,,,,,,,,,,,,,,,,,,,,,,,,,,,倉敷,34.6019504,133.7657825,
1,福山,↓,Pass,,,,,,,,,,,,,,,,,,,,,,,,,,,,,,,,,,,,,,,,,,,,,福山,34.4894286,133.3624823,
1,尾道,6.47,Dep,,,,,,,,,,,,,,,,,,,,,,,,,,,,,,,,,,,,,,,,,,,,,尾道,34.4047863,133.1931312,
1,海田市,7.04,Dep,,,,,,,,,,,,,,,,,,,,,,,,,,,,,,,,,,,,,,,,,,,,,海田市,34.3719648,132.5304932,
1,廣島,5.10,Dep,,,,,,,,,,,,,,,,,,,,,,,,,,,,,,,,,,,,,,,,,,,,,廣島,34.3971933,132.4767339,
1,宮島,↓,Pass,,,,,,,,,,,,,,,,,,,,,,,,,,,,,,,,,,,,,,,,,,,,,宮島,34.271448,132.3088722,
1,麻里布,8.02,Dep,,,,,,,,,,,,,,,,,,,,,,,,,,,,,,,,,,,,,,,,,,,,,麻里布,33.9139428,132.043799,
1,岩國,8.41,Dep,,,,,,,,,,,,,,,,,,,,,,,,,,,,,,,,,,,,,,,,,,,,,岩國,34.1719658,132.2255418,
1,德山,9.04,Dep,,,,,,,,,,,,,,,,,,,,,,,,,,,,,,,,,,,,,,,,,,,,,德山,28.9526697,111.7003932,
1,三田尻,9.17,Dep,,,,,,,,,,,,,,,,,,,,,,,,,,,,,,,,,,,,,,,,,,,,,三田尻,34.0383437,131.5843553,
1,小郡,10.04,Dep,,,,,,,,,,,,,,,,,,,,,,,,,,,,,,,,,,,,,,,,,,,,,小郡,33.3976172,130.553641,
1,厚狹,10.55,Dep,,,,,,,,,,,,,,,,,,,,,,,,,,,,,,,,,,,,,,,,,,,,,厚狹,34.0537909,131.1599628,
1,下關,10.55,Arr,,,,,,,,,,,,,,,,,,,,,,,,,,,,,,,,,,,,,,,,,,,,,下關,33.9577116,130.9415455,
1,哈爾濱,7.20,Dep,,,,,,,,,,,,,,,,,,,,,,,,,,,,,,,,,,,,,,,,,,,,,哈爾濱,45.7593633,126.6276177,
1,平房驛,8.20,Arr,,,,,,,,,,,,,,,,,,,,,,,,,,,,,,,,,,,,,,,,,,,,,平房驛,45.5957262,126.6311254,
1,宮島,6.22,Dep,,,,,,,,,,,,,,,,,,,,,,,,,,,,,,,,,,,,,,,,,,,,,宮島,34.271448,132.3088722,
1,嚴島町,6.34,Arr,,,,,,,,,,,,,,,,,,,,,,,,,,,,,,,,,,,,,,,,,,,,,嚴島町,37.502223,138.824768,
1,通化,8.00,Dep,,,,,,,,,,,,,,,,,,,,,,,,,,,,,,,,,,,,,,,,,,,,,通化,42.123889,125.848333,
1,撫摩子,11.00,Dep,,,,,,,,,,,,,,,,,,,,,,,,,,,,,,,,,,,,,,,,,,,,,撫摩子,37.7427704,112.4587318,
1,桓仁,12.30,Arr,,,,,,,,,,,,,,,,,,,,,,,,,,,,,,,,,,,,,,,,,,,,,桓仁,41.2681066,125.3487306,
1,東京,13.40,Dep,,,,,,,,,,,,,,,,,,,,,,,,,,,,,,,,,,,,,,,,,,,,,東京,35.6768601,139.7638947,
1,名古屋,15.30,Arr,,,,,,,,,,,,,,,,,,,,,,,,,,,,,,,,,,,,,,,,,,,,,名古屋,35.1707285,136.8818431,
1,名古屋,15.40,Dep,,,,,,,,,,,,,,,,,,,,,,,,,,,,,,,,,,,,,,,,,,,,,名古屋,35.1707285,136.8818431,
1,大阪,16.35,Arr,,,,,,,,,,,,,,,,,,,,,,,,,,,,,,,,,,,,,,,,,,,,,大阪,34.6937569,135.5014539,
1,福岡,9.20,Dep,,,,,,,,,,,,,,,,,,,,,,,,,,,,,,,,,,,,,,,,,,,,,福岡,36.7080711,136.9317779,
1,大邱,9.40,Arr,,,,,,,,,,,,,,,,,,,,,,,,,,,,,,,,,,,,,,,,,,,,,大邱,35.8713,128.6018,
1,京城,10.55,Arr,,,,,,,,,,,,,,,,,,,,,,,,,,,,,,,,,,,,,,,,,,,,,京城,37.5548238,126.9722165,
1,京城,11.10,Dep,,,,,,,,,,,,,,,,,,,,,,,,,,,,,,,,,,,,,,,,,,,,,京城,37.5548238,126.9722165,
1,平壤,12.10,Arr,,,,,,,,,,,,,,,,,,,,,,,,,,,,,,,,,,,,,,,,,,,,,平壤,39.0046949,125.7358714,
1,新義州,15.00,Dep,,,,,,,,,,,,,,,,,,,,,,,,,,,,,,,,,,,,,,,,,,,,,新義州,42.359006,93.449334,
1,大連,16.25,Arr,,,,,,,,,,,,,,,,,,,,,,,,,,,,,,,,,,,,,,,,,,,,,大連,38.9130495,121.6098013,
1,臺南,10.00,Dep,,,,,,,,,,,,,,,,,,,,,,,,,,,,,,,,,,,,,,,,,,,,,臺南,22.9912348,120.184982,
1,馬公,10.25,Arr,,,,,,,,,,,,,,,,,,,,,,,,,,,,,,,,,,,,,,,,,,,,,馬公,32.311661,104.997937,
1,臺北,8.30,Dep,,,,,,,,,,,,,,,,,,,,,,,,,,,,,,,,,,,,,,,,,,,,,臺北,25.0479308,121.5170046,
1,臺中,9.05,Arr,,,,,,,,,,,,,,,,,,,,,,,,,,,,,,,,,,,,,,,,,,,,,臺中,24.1370662,120.6868667,
1,臺中,9.15,Dep,,,,,,,,,,,,,,,,,,,,,,,,,,,,,,,,,,,,,,,,,,,,,臺中,24.1370662,120.6868667,
1,臺南,9.50,Arr,,,,,,,,,,,,,,,,,,,,,,,,,,,,,,,,,,,,,,,,,,,,,臺南,22.9912348,120.184982,
1,臺南,10.05,Dep,,,,,,,,,,,,,,,,,,,,,,,,,,,,,,,,,,,,,,,,,,,,,臺南,22.9912348,120.184982,
1,高雄,10.15,Arr,,,,,,,,,,,,,,,,,,,,,,,,,,,,,,,,,,,,,,,,,,,,,高雄,22.639838,120.3025796,
1,高雄,10.25,Dep,,,,,,,,,,,,,,,,,,,,,,,,,,,,,,,,,,,,,,,,,,,,,高雄,22.639838,120.3025796,
1,屏東,10.35,Arr,,,,,,,,,,,,,,,,,,,,,,,,,,,,,,,,,,,,,,,,,,,,,屏東,22.6687454,120.4860668,
1,花蓮港,11.05,Arr,,,,,,,,,,,,,,,,,,,,,,,,,,,,,,,,,,,,,,,,,,,,,花蓮港,23.9877858,121.634328,
1,花蓮港,11.15,Dep,,,,,,,,,,,,,,,,,,,,,,,,,,,,,,,,,,,,,,,,,,,,,花蓮港,23.9877858,121.634328,
1,宜蘭,12.00,Arr,,,,,,,,,,,,,,,,,,,,,,,,,,,,,,,,,,,,,,,,,,,,,宜蘭,24.7545672,121.7582722,
1,宜蘭,12.10,Dep,,,,,,,,,,,,,,,,,,,,,,,,,,,,,,,,,,,,,,,,,,,,,宜蘭,24.7545672,121.7582722,
1,臺北,12.45,Arr,,,,,,,,,,,,,,,,,,,,,,,,,,,,,,,,,,,,,,,,,,,,,臺北,25.0479308,121.5170046,
1,釜山,,Dep,,,,,,,,,,,,,,,,,,,,,,,,,,,,,,,,,,,,,,,,,,,,,釜山,35.1799528,129.0752365,
1,新京,,Arr,,,,,,,,,,,,,,,,,,,,,,,,,,,,,,,,,,,,,,,,,,,,,新京,43.9088384,125.3177297,
1,東京,3.00,Dep,,,,,,,,,,,,,,,,,,,,,,,,,,,,,,,,,,,,,,,,,,,,,東京,35.6768601,139.7638947,
1,橫濱,3.27,Dep,,,,,,,,,,,,,,,,,,,,,,,,,,,,,,,,,,,,,,,,,,,,,橫濱,35.4503381,139.6343802,
1,沼津,5.02,Dep,,,,,,,,,,,,,,,,,,,,,,,,,,,,,,,,,,,,,,,,,,,,,沼津,35.1031271,138.8593352,
1,靜岡,5.49,Dep,,,,,,,,,,,,,,,,,,,,,,,,,,,,,,,,,,,,,,,,,,,,,靜岡,34.9715372,138.3883294,
1,名古屋,8.32,Dep,,,,,,,,,,,,,,,,,,,,,,,,,,,,,,,,,,,,,,,,,,,,,名古屋,35.1707285,136.8818431,
1,京都,10.53,Dep,,,,,,,,,,,,,,,,,,,,,,,,,,,,,,,,,,,,,,,,,,,,,京都,34.9861909,135.7600629,
1,大阪/三ノ宮,11.34,Dep,,,,,,,,,,,,,,,,,,,,,,,,,,,,,,,,,,,,,,,,,,,,,大阪/三ノ宮,34.6596291,135.5632592,
1,神戸,0.04,Dep,,,,,,,,,,,,,,,,,,,,,,,,,,,,,,,,,,,,,,,,,,,,,神戸,34.6792884,135.1782824,
1,岡山,0.11,Dep,,,,,,,,,,,,,,,,,,,,,,,,,,,,,,,,,,,,,,,,,,,,,岡山,34.6667504,133.9182664,
1,廣島,1.05,Dep,,,,,,,,,,,,,,,,,,,,,,,,,,,,,,,,,,,,,,,,,,,,,廣島,34.3971933,132.4767339,
1,下關,9.25,Arr,,,,,,,,,,,,,,,,,,,,,,,,,,,,,,,,,,,,,,,,,,,,,下關,33.9577116,130.9415455,
1,下關,9.45,Dep,,,,,,,,,,,,,,,,,,,,,,,,,,,,,,,,,,,,,,,,,,,,,下關,33.9577116,130.9415455,
1,門司,10.00,Arr,,,,,,,,,,,,,,,,,,,,,,,,,,,,,,,,,,,,,,,,,,,,,門司,33.9045155,130.9329208,
1,大連,9.00,Dep,,,,,,,,,,,,,,,,,,,,,,,,,,,,,,,,,,,,,,,,,,,,,大連,38.9130495,121.6098013,
1,奉天,13.42,Arr,,,,,,,,,,,,,,,,,,,,,,,,,,,,,,,,,,,,,,,,,,,,,奉天,41.7924481,123.3879307,
1,奉天,13.48,Dep,,,,,,,,,,,,,,,,,,,,,,,,,,,,,,,,,,,,,,,,,,,,,奉天,41.7924481,123.3879307,
1,新京,17.20,Arr,,,,,,,,,,,,,,,,,,,,,,,,,,,,,,,,,,,,,,,,,,,,,新京,43.9088384,125.3177297,
1,新京,17.30,Dep,,,,,,,,,,,,,,,,,,,,,,,,,,,,,,,,,,,,,,,,,,,,,新京,43.9088384,125.3177297,
1,哈爾濱,21.30,Arr,,,,,,,,,,,,,,,,,,,,,,,,,,,,,,,,,,,,,,,,,,,,,哈爾濱,45.7593633,126.6276177,
1,巴里,10.06,Dep,,,,,,,,,,,,,,,,,,,,,,,,,,,,,,,,,,,,,,,,,,,,,巴里,41.1257843,16.8620293,
1,伯林,23.44,Arr,,,,,,,,,,,,,,,,,,,,,,,,,,,,,,,,,,,,,,,,,,,,,伯林,31.3252301,79.502778,
1,大連,10.00,Dep,,,,,,,,,,,,,,,,,,,,,,,,,,,,,,,,,,,,,,,,,,,,,大連,38.9130495,121.6098013,
1,奉天,11.30,Arr,,,,,,,,,,,,,,,,,,,,,,,,,,,,,,,,,,,,,,,,,,,,,奉天,41.7924481,123.3879307,
1,奉天,11.40,Dep,,,,,,,,,,,,,,,,,,,,,,,,,,,,,,,,,,,,,,,,,,,,,奉天,41.7924481,123.3879307,
1,新京,12.50,Arr,,,,,,,,,,,,,,,,,,,,,,,,,,,,,,,,,,,,,,,,,,,,,新京,43.9088384,125.3177297,
1,新京,13.10,Dep,,,,,,,,,,,,,,,,,,,,,,,,,,,,,,,,,,,,,,,,,,,,,新京,43.9088384,125.3177297,
1,哈爾濱,14.15,Arr,,,,,,,,,,,,,,,,,,,,,,,,,,,,,,,,,,,,,,,,,,,,,哈爾濱,45.7593633,126.6276177,
1,哈爾濱,14.25,Dep,,,,,,,,,,,,,,,,,,,,,,,,,,,,,,,,,,,,,,,,,,,,,哈爾濱,45.7593633,126.6276177,
1,佳木斯,15.45,Arr,,,,,,,,,,,,,,,,,,,,,,,,,,,,,,,,,,,,,,,,,,,,,佳木斯,47.02157,132.044137,
1.2,,,,Dining Car Service,,,,,,,,,,,,安東ー新京間,,,,,,,,,洋定食式、一品式和定食及丼,,,,,,,,,,,,,,,,,,,,,,,,,,
1.2,,,,Dining Car Price,,,,,,,,,,,,,,,,,,,,,,0.90,1.50,1.50,0.60,1.30,1.30,,,,,,,,,,,,,,,,,,,,
10,金郊,00:18,Dep,,,,,,,,,,,,,,,,,,,,,,,,,,,,,,,,,,,,,,,,,,,,,金郊,40.7734654,120.8662331,18.0
10,開城,00:31,Arr,,,,,,,,,,,,,,,,,,,,,,,,,,,,,,,,,,,,,,,,,,,,,開城,31.2899481,117.7342821,31.0
10,開城,00:34,Dep,,,,,,,,,,,,,,,,,,,,,,,,,,,,,,,,,,,,,,,,,,,,,開城,31.2899481,117.7342821,34.0
10,本溪湖,0:42,Arr,,,,,,,,,,,,,,,,,,,,,,,,,,,,,,,,,,,,,,,,,,,,,本溪湖,41.325548,123.761778,42.0
10,本溪湖,0:47,Dep,,,,,,,,,,,,,,,,,,,,,,,,,,,,,,,,,,,,,,,,,,,,,本溪湖,41.325548,123.761778,47.0
10,橋頭,1:14,Arr,,,,,,,,,,,,,,,,,,,,,,,,,,,,,,,,,,,,,,,,,,,,,橋頭,22.761088,120.3102143,74.0
10,橋頭,1:20,Dep,,,,,,,,,,,,,,,,,,,,,,,,,,,,,,,,,,,,,,,,,,,,,橋頭,22.761088,120.3102143,80.0
10,静岡,1:27,Dep,,,,,,,,,,,,,,,,,,,,,,,,,,,,,,,,,,,,,,,,,,,,,静岡,34.9715372,138.3883294,87.0
10,京城,02:02,Dep,,,,,,,,,,,,,,,,,,,,,,,,,,,,,,,,,,,,,,,,,,,,,京城,37.5548238,126.9722165,122.0
10,下馬塘,2:05,Dep,,,,,,,,,,,,,,,,,,,,,,,,,,,,,,,,,,,,,,,,,,,,,下馬塘,24.2252036,115.6648241,125.0
10,龍山,02:08,Dep,,,,,,,,,,,,,,,,,,,,,,,,,,,,,,,,,,,,,,,,,,,,,龍山,29.231187,109.496576,128.0
10,沼津,2:11,Dep,,,,,,,,,,,,,,,,,,,,,,,,,,,,,,,,,,,,,,,,,,,,,沼津,35.1031271,138.8593352,131.0
10,安養,02:17,Dep,,,,,,,,,,,,,,,,,,,,,,,,,,,,,,,,,,,,,,,,,,,,,安養,35.9901282,114.5096506,137.0
10,熱海,2:39,Dep,,,,,,,,,,,,,,,,,,,,,,,,,,,,,,,,,,,,,,,,,,,,,熱海,35.10409,139.0777771,159.0
10,水原,02:48,Dep,,,,,,,,,,,,,,,,,,,,,,,,,,,,,,,,,,,,,,,,,,,,,水原,37.2662775,127.0004098,168.0
10,新竹,3:01,Arr,,,,,,,,,,,,,,,,,,,,,,,,,,,,,,,,,,,,,,,,,,,,,新竹,24.8014026,120.971678,181.0
10,小田原,3:02,Dep,,,,,,,,,,,,,,,,,,,,,,,,,,,,,,,,,,,,,,,,,,,,,小田原,35.2561088,139.1557825,182.0
10,新竹,3:04,Dep,,,,,,,,,,,,,,,,,,,,,,,,,,,,,,,,,,,,,,,,,,,,,新竹,24.8014026,120.971678,184.0
10,國府津,3:07,Dep,,,,,,,,,,,,,,,,,,,,,,,,,,,,,,,,,,,,,,,,,,,,,國府津,35.2812891,139.214209,187.0
10,四張,3:33,Dep,,,,,,,,,,,,,,,,,,,,,,,,,,,,,,,,,,,,,,,,,,,,,四張,24.19435,120.6772183,213.0
10,大田,03:38,Arr,,,,,,,,,,,,,,,,,,,,,,,,,,,,,,,,,,,,,,,,,,,,,大田,36.3497007,127.3849016,218.0
10,大田,03:39,Dep,,,,,,,,,,,,,,,,,,,,,,,,,,,,,,,,,,,,,,,,,,,,,大田,36.3497007,127.3849016,219.0
10,大船,3:41,Dep,,,,,,,,,,,,,,,,,,,,,,,,,,,,,,,,,,,,,,,,,,,,,大船,35.3543087,139.5314325,221.0
10,横濱,4:01,Dep,,,,,,,,,,,,,,,,,,,,,,,,,,,,,,,,,,,,,,,,,,,,,横濱,35.4503381,139.6343802,241.0
10,張家堡,4:08,Dep,,,,,,,,,,,,,,,,,,,,,,,,,,,,,,,,,,,,,,,,,,,,,張家堡,40.8171433,114.8782861,248.0
10,品川,4:15,Dep,,,,,,,,,,,,,,,,,,,,,,,,,,,,,,,,,,,,,,,,,,,,,品川,35.6298948,139.7403731,255.0
10,東京,4:25,Arr,,,,,,,,,,,,,,,,,,,,,,,,,,,,,,,,,,,,,,,,,,,,,東京,35.6768601,139.7638947,265.0
10,安東,04:50,Dep,,,,,,,,,,,,,,,,,,,,,,,,,,,,,,,,,,,,,,,,,,,,,安東,40.1237658,124.3821748,290.0
10,新義州,04:56,Dep,,,,,,,,,,,,,,,,,,,,,,,,,,,,,,,,,,,,,,,,,,,,,新義州,42.359006,93.449334,296.0
10,臺北,5:20,Arr,,,,,,,,,,,,,,,,,,,,,,,,,,,,,,,,,,,,,,,,,,,,,臺北,25.0479308,121.5170046,320.0
10,臺北,5:30,Dep,,,,,,,,,,,,,,,,,,,,,,,,,,,,,,,,,,,,,,,,,,,,,臺北,25.0479308,121.5170046,330.0
10,安東,5:43,Arr,,,,,,,,,,,,,,,,,,,,,,,,,,,,,,,,,,,,,,,,,,,,,安東,40.1237658,124.3821748,343.0
10,基隆,6:10,Arr,,,,,,,,,,,,,,,,,,,,,,,,,,,,,,,,,,,,,,,,,,,,,基隆,25.1317232,121.744652,370.0
10,館,06:10,Dep,,,,,,,,,,,,,,,,,,,,,,,,,,,,,,,,,,,,,,,,,,,,,館,38.3172138,140.7992378,370.0
10,大邱,06:25,Arr,,,,,,,,,,,,,,,,,,,,,,,,,,,,,,,,,,,,,,,,,,,,,大邱,35.8713,128.6018,385.0
10,高雄,6:32,Dep,,,,,,,,,,,,,,,,,,,,,,,,,,,,,,,,,,,,,,,,,,,,,高雄,22.639838,120.3025796,392.0
10,東林,06:42,Dep,,,,,,,,,,,,,,,,,,,,,,,,,,,,,,,,,,,,,,,,,,,,,東林,47.5063664,127.0236137,402.0
10,岡山,7:05,Dep,,,,,,,,,,,,,,,,,,,,,,,,,,,,,,,,,,,,,,,,,,,,,岡山,34.6667504,133.9182664,425.0
10,宣川,07:05,Dep,,,,,,,,,,,,,,,,,,,,,,,,,,,,,,,,,,,,,,,,,,,,,宣川,39.7982671,124.9189029,425.0
10,安東,7:29,Dep,,,,,,,,,,,,,,,,,,,,,,,,,,,,,,,,,,,,,,,,,,,,,安東,40.1237658,124.3821748,449.0
10,定州,07:30,Dep,,,,,,,,,,,,,,,,,,,,,,,,,,,,,,,,,,,,,,,,,,,,,定州,38.5298375,114.9671026,450.0
10,臺南,7:50,Arr,,,,,,,,,,,,,,,,,,,,,,,,,,,,,,,,,,,,,,,,,,,,,臺南,22.9912348,120.184982,470.0
10,北京,07:50,Dep,,,,,,,,,,,,,,,,,,,,,,,,,,,,,,,,,,,,,,,,,,,,,北京,39.9057136,116.3912972,470.0
10,大阪,8:00,Dep,,,,,,,,,,,,,,,,,,,,,,,,,,,,,,,,,,,,,,,,,,,,,大阪,34.6937569,135.5014539,480.0
10,臺南,8:10,Dep,,,,,,,,,,,,,,,,,,,,,,,,,,,,,,,,,,,,,,,,,,,,,臺南,22.9912348,120.184982,490.0
10,新安州,08:14,Dep,,,,,,,,,,,,,,,,,,,,,,,,,,,,,,,,,,,,,,,,,,,,,新安州,39.5962839,125.6063095,494.0
10,京都,8:40,Dep,,,,,,,,,,,,,,,,,,,,,,,,,,,,,,,,,,,,,,,,,,,,,京都,34.9861909,135.7600629,520.0
10,平壤,08:41,Arr,,,,,,,,,,,,,,,,,,,,,,,,,,,,,,,,,,,,,,,,,,,,,平壤,39.0046949,125.7358714,521.0
10,平壤,08:46,Dep,,,,,,,,,,,,,,,,,,,,,,,,,,,,,,,,,,,,,,,,,,,,,平壤,39.0046949,125.7358714,526.0
10,大津,8:55,Dep,,,,,,,,,,,,,,,,,,,,,,,,,,,,,,,,,,,,,,,,,,,,,大津,35.0030494,135.8648951,535.0
10,三浪津,09:01,Arr,,,,,,,,,,,,,,,,,,,,,,,,,,,,,,,,,,,,,,,,,,,,,三浪津,35.3990296,128.8438715,541.0
10,三浪津,09:02,Dep,,,,,,,,,,,,,,,,,,,,,,,,,,,,,,,,,,,,,,,,,,,,,三浪津,35.3990296,128.8438715,542.0
10,草津,9:04,Dep,,,,,,,,,,,,,,,,,,,,,,,,,,,,,,,,,,,,,,,,,,,,,草津,35.0179088,135.96046,544.0
10,楊村,09:14,Dep,,,,,,,,,,,,,,,,,,,,,,,,,,,,,,,,,,,,,,,,,,,,,楊村,31.8328462,105.6674622,554.0
10,嘉義,9:26,Arr,,,,,,,,,,,,,,,,,,,,,,,,,,,,,,,,,,,,,,,,,,,,,嘉義,23.4799042,120.4415839,566.0
10,黃州,09:29,Dep,,,,,,,,,,,,,,,,,,,,,,,,,,,,,,,,,,,,,,,,,,,,,黃州,38.6945065,125.7606443,569.0
10,嘉義,9:31,Dep,,,,,,,,,,,,,,,,,,,,,,,,,,,,,,,,,,,,,,,,,,,,,嘉義,23.4799042,120.4415839,571.0
10,米原,9:45,Dep,,,,,,,,,,,,,,,,,,,,,,,,,,,,,,,,,,,,,,,,,,,,,米原,35.3150245,136.2895833,585.0
10,釜山,09:50,Arr,,,,,,,,,,,,,,,,,,,,,,,,,,,,,,,,,,,,,,,,,,,,,釜山,35.1799528,129.0752365,590.0
10,八幡濱,9:57,Dep,,,,,,,,,,,,,,,,,,,,,,,,,,,,,,,,,,,,,,,,,,,,,八幡濱,33.4627983,132.4235208,597.0
10,南京,10:00,Dep,,,,,,,,,,,,,,,,,,,,,,,,,,,,,,,,,,,,,,,,,,,,,南京,32.0438284,118.7788631,600.0
10,沙里院,10:10,Arr,,,,,,,,,,,,,,,,,,,,,,,,,,,,,,,,,,,,,,,,,,,,,沙里院,22.038876,111.6141468,610.0
10,天津,10:12,Arr,,,,,,,,,,,,,,,,,,,,,,,,,,,,,,,,,,,,,,,,,,,,,天津,39.3032619,117.4163641,612.0
10,沙里院,10:17,Dep,,,,,,,,,,,,,,,,,,,,,,,,,,,,,,,,,,,,,,,,,,,,,沙里院,22.038876,111.6141468,617.0
10,豐榮,10:21,Dep,,,,,,,,,,,,,,,,,,,,,,,,,,,,,,,,,,,,,,,,,,,,,豐榮,22.7433087,121.1370634,621.0
10,大垣,10:21,Dep,,,,,,,,,,,,,,,,,,,,,,,,,,,,,,,,,,,,,,,,,,,,,大垣,35.3670837,136.6178001,621.0
10,天津,10:22,Dep,,,,,,,,,,,,,,,,,,,,,,,,,,,,,,,,,,,,,,,,,,,,,天津,39.3032619,117.4163641,622.0
10,伊豫長濱,10:31,Arr/Dep,,,,,,,,,,,,,,,,,,,,,,,,,,,,,,,,,,,,,,,,,,,,,伊豫長濱,22.3598081,114.1089495,631.0
10,岐阜,10:36,Dep,,,,,,,,,,,,,,,,,,,,,,,,,,,,,,,,,,,,,,,,,,,,,岐阜,35.4094858,136.7569769,636.0
10,松山,11:00,Arr,,,,,,,,,,,,,,,,,,,,,,,,,,,,,,,,,,,,,,,,,,,,,松山,33.8399303,132.7507395,660.0
10,松山,11:00,Dep,,,,,,,,,,,,,,,,,,,,,,,,,,,,,,,,,,,,,,,,,,,,,松山,33.8399303,132.7507395,660.0
10,新幕,11:01,Dep,,,,,,,,,,,,,,,,,,,,,,,,,,,,,,,,,,,,,,,,,,,,,新幕,38.4193639,126.2300751,661.0
10,名古屋,11:02,Arr,,,,,,,,,,,,,,,,,,,,,,,,,,,,,,,,,,,,,,,,,,,,,名古屋,35.1707285,136.8818431,662.0
10,名古屋,11:07,Dep,,,,,,,,,,,,,,,,,,,,,,,,,,,,,,,,,,,,,,,,,,,,,名古屋,35.1707285,136.8818431,667.0
10,伊豫北條,11:22,Arr/Dep,,,,,,,,,,,,,,,,,,,,,,,,,,,,,,,,,,,,,,,,,,,,,伊豫北條,33.9725556,132.7752133,682.0
10,安慶,11:40,Arr,,,,,,,,,,,,,,,,,,,,,,,,,,,,,,,,,,,,,,,,,,,,,安慶,30.6592336,116.6302585,700.0
10,蒲郡,11:41,Dep,,,,,,,,,,,,,,,,,,,,,,,,,,,,,,,,,,,,,,,,,,,,,蒲郡,34.8231299,137.2259063,701.0
10,臺中,11:42,Arr,,,,,,,,,,,,,,,,,,,,,,,,,,,,,,,,,,,,,,,,,,,,,臺中,24.1370662,120.6868667,702.0
10,今治,11:50,Arr/Dep,,,,,,,,,,,,,,,,,,,,,,,,,,,,,,,,,,,,,,,,,,,,,今治,34.0641845,132.9936721,710.0
10,安慶,11:50,Dep,,,,,,,,,,,,,,,,,,,,,,,,,,,,,,,,,,,,,,,,,,,,,安慶,30.6592336,116.6302585,710.0
10,豐橋,11:55,Dep,,,,,,,,,,,,,,,,,,,,,,,,,,,,,,,,,,,,,,,,,,,,,豐橋,31.0154053,121.5888222,715.0
10,臺中,12:12,Dep,,,,,,,,,,,,,,,,,,,,,,,,,,,,,,,,,,,,,,,,,,,,,臺中,24.1370662,120.6868667,732.0
10,伊豫西條,12:29,Arr/Dep,,,,,,,,,,,,,,,,,,,,,,,,,,,,,,,,,,,,,,,,,,,,,伊豫西條,33.9124158,133.1875765,749.0
10,濱松,12:30,Dep,,,,,,,,,,,,,,,,,,,,,,,,,,,,,,,,,,,,,,,,,,,,,濱松,34.7109786,137.7259431,750.0
10,九江,12:30,Arr,,,,,,,,,,,,,,,,,,,,,,,,,,,,,,,,,,,,,,,,,,,,,九江,29.388607,115.3820227,750.0
10,唐山,12:35,Arr,,,,,,,,,,,,,,,,,,,,,,,,,,,,,,,,,,,,,,,,,,,,,唐山,39.6295951,118.1738712,755.0
10,九江,12:40,Dep,,,,,,,,,,,,,,,,,,,,,,,,,,,,,,,,,,,,,,,,,,,,,九江,29.388607,115.3820227,760.0
10,唐山,12:48,Dep,,,,,,,,,,,,,,,,,,,,,,,,,,,,,,,,,,,,,,,,,,,,,唐山,39.6295951,118.1738712,768.0
10,古冶,13:05,Dep,,,,,,,,,,,,,,,,,,,,,,,,,,,,,,,,,,,,,,,,,,,,,古冶,39.7325497,118.4408381,785.0
10,觀音寺,13:16,Arr/Dep,,,,,,,,,,,,,,,,,,,,,,,,,,,,,,,,,,,,,,,,,,,,,觀音寺,28.915,111.087,796.0
10,漢口,13:30,Arr,,,,,,,,,,,,,,,,,,,,,,,,,,,,,,,,,,,,,,,,,,,,,漢口,30.6216514,114.2494144,810.0
10,灤縣,13:39,Dep,,,,,,,,,,,,,,,,,,,,,,,,,,,,,,,,,,,,,,,,,,,,,灤縣,39.7397547,118.6974947,819.0
10,大孤山,14:00,Dep,,,,,,,,,,,,,,,,,,,,,,,,,,,,,,,,,,,,,,,,,,,,,大孤山,39.0024586,121.8588318,840.0
10,多度津,14:01,Arr,,,,,,,,,,,,,,,,,,,,,,,,,,,,,,,,,,,,,,,,,,,,,多度津,34.2711186,133.757012,841.0
10,多度津,14:01,Dep,,,,,,,,,,,,,,,,,,,,,,,,,,,,,,,,,,,,,,,,,,,,,多度津,34.2711186,133.757012,841.0
10,昌黎,14:09,Dep,,,,,,,,,,,,,,,,,,,,,,,,,,,,,,,,,,,,,,,,,,,,,昌黎,39.702907,119.16145,849.0
10,丸龜,14:11,Arr/Dep,,,,,,,,,,,,,,,,,,,,,,,,,,,,,,,,,,,,,,,,,,,,,丸龜,34.292045,133.792955,851.0
10,坂出,14:21,Arr/Dep,,,,,,,,,,,,,,,,,,,,,,,,,,,,,,,,,,,,,,,,,,,,,坂出,34.3132298,133.8562913,861.0
10,北戴河,14:39,Arr,,,,,,,,,,,,,,,,,,,,,,,,,,,,,,,,,,,,,,,,,,,,,北戴河,39.8605725,119.4354373,879.0
10,高松,14:43,Arr,,,,,,,,,,,,,,,,,,,,,,,,,,,,,,,,,,,,,,,,,,,,,高松,34.3434475,134.0489373,883.0
10,高松棧橋,14:48,Arr,,,,,,,,,,,,,,,,,,,,,,,,,,,,,,,,,,,,,,,,,,,,,高松棧橋,35.0098602,135.756109,888.0
10,秦皇島,15:00,Arr,,,,,,,,,,,,,,,,,,,,,,,,,,,,,,,,,,,,,,,,,,,,,秦皇島,39.9395724,119.5894129,900.0
10,昂々溪,15:10,Dep,,,,,,,,,,,,,,,,,,,,,,,,,,,,,,,,,,,,,,,,,,,,,昂々溪,34.261004,108.9423363,910.0
10,山海關,15:18,Arr,,,,,,,,,,,,,,,,,,,,,,,,,,,,,,,,,,,,,,,,,,,,,山海關,39.9987877,119.7563671,918.0
10,大東溝,16:00,Stop,,,,,,,,,,,,,,,,,,,,,,,,,,,,,,,,,,,,,,,,,,,,,大東溝,35.5633055,112.7033026,960.0
10,齊齊哈爾,16:10,Arr,,,,,,,,,,,,,,,,,,,,,,,,,,,,,,,,,,,,,,,,,,,,,齊齊哈爾,47.7363891,124.6567611,970.0
10,河深溝,16:45,Stop,,,,,,,,,,,,,,,,,,,,,,,,,,,,,,,,,,,,,,,,,,,,,河深溝,32.8379128,111.653322,1005.0
10,京城,17:12,Arr,,,,,,,,,,,,,,,,,,,,,,,,,,,,,,,,,,,,,,,,,,,,,京城,37.5548238,126.9722165,1032.0
10,安東驛,17:30,Arr,,,,,,,,,,,,,,,,,,,,,,,,,,,,,,,,,,,,,,,,,,,,,安東驛,40.1237658,124.3821748,1050.0
10,京城,18:19,Arr,,,,,,,,,,,,,,,,,,,,,,,,,,,,,,,,,,,,,,,,,,,,,京城,37.5548238,126.9722165,1099.0
10,釜山,22:10,Arr,,,,,,,,,,,,,,,,,,,,,,,,,,,,,,,,,,,,,,,,,,,,,釜山,35.1799528,129.0752365,1330.0
10,奉天,23:18,Dep,,,,,,,,,,,,,,,,,,,,,,,,,,,,,,,,,,,,,,,,,,,,,奉天,41.7924481,123.3879307,1398.0
10,蘇家屯,23:23,Dep,,,,,,,,,,,,,,,,,,,,,,,,,,,,,,,,,,,,,,,,,,,,,蘇家屯,41.6626981,123.3379327,1403.0
10,石橋子,23:40,Dep,,,,,,,,,,,,,,,,,,,,,,,,,,,,,,,,,,,,,,,,,,,,,石橋子,41.4681077,123.7076577,1420.0
10,普蘭店驛,15.00,Dep,,,,,,,,,,,,,,,,,,,,,,,,,,,,,,,,,,,,,,,,,,,,,普蘭店驛,39.4035058,121.9678453,
10,獅子窩驛,16.30,Arr,,,,,,,,,,,,,,,,,,,,,,,,,,,,,,,,,,,,,,,,,,,,,獅子窩驛,39.002994,113.4987098,
10,臺東,11.00,Dep,,,,,,,,,,,,,,,,,,,,,,,,,,,,,,,,,,,,,,,,,,,,,臺東,22.7934597,121.1224316,
10,里,4.19,Arr,,,,,,,,,,,,,,,,,,,,,,,,,,,,,,,,,,,,,,,,,,,,,里,33.2848731,129.8354635,
10,穗,3.30,Arr,,,,,,,,,,,,,,,,,,,,,,,,,,,,,,,,,,,,,,,,,,,,,穗,34.398696,115.035417,
10,壽,2.16,Arr,,,,,,,,,,,,,,,,,,,,,,,,,,,,,,,,,,,,,,,,,,,,,壽,35.7081099,139.7907949,
10,花蓮港,5.45,Arr,,,,,,,,,,,,,,,,,,,,,,,,,,,,,,,,,,,,,,,,,,,,,花蓮港,23.9877858,121.634328,
10,豐臺,↓,Pass,,,,,,,,,,,,,,,,,,,,,,,,,,,,,,,,,,,,,,,,,,,,,豐臺,39.8571176,116.2804172,
10,廊坊,↓,Pass,,,,,,,,,,,,,,,,,,,,,,,,,,,,,,,,,,,,,,,,,,,,,廊坊,39.5302055,116.6926134,
10,落垡,↓,Pass,,,,,,,,,,,,,,,,,,,,,,,,,,,,,,,,,,,,,,,,,,,,,落垡,39.4392182,116.8379401,
10,北倉,↓,Pass,,,,,,,,,,,,,,,,,,,,,,,,,,,,,,,,,,,,,,,,,,,,,北倉,39.2416408,117.1457309,
10,開平,↓,Pass,,,,,,,,,,,,,,,,,,,,,,,,,,,,,,,,,,,,,,,,,,,,,開平,22.3474568,112.5344174,
10,南京,11.40,Dep,,,,,,,,,,,,,,,,,,,,,,,,,,,,,,,,,,,,,,,,,,,,,南京,32.0438284,118.7788631,
10,堯化門,11.52,Pass,,,,,,,,,,,,,,,,,,,,,,,,,,,,,,,,,,,,,,,,,,,,,堯化門,32.124713,118.8826268,
10,棲霞山,12.05,Pass,,,,,,,,,,,,,,,,,,,,,,,,,,,,,,,,,,,,,,,,,,,,,棲霞山,32.1568225,118.9627409,
10,龍潭,12.16,Pass,,,,,,,,,,,,,,,,,,,,,,,,,,,,,,,,,,,,,,,,,,,,,龍潭,44.0375666,126.6366688,
10,下蜀,12.28,Pass,,,,,,,,,,,,,,,,,,,,,,,,,,,,,,,,,,,,,,,,,,,,,下蜀,32.1725107,119.1629657,
10,高資,12.48,Pass,,,,,,,,,,,,,,,,,,,,,,,,,,,,,,,,,,,,,,,,,,,,,高資,32.1750215,119.2903872,
10,鎭江,13.19,Arr,,,,,,,,,,,,,,,,,,,,,,,,,,,,,,,,,,,,,,,,,,,,,鎭江,32.1891959,119.4200069,
10,鎭江,13.39,Dep,,,,,,,,,,,,,,,,,,,,,,,,,,,,,,,,,,,,,,,,,,,,,鎭江,32.1891959,119.4200069,
10,新豐,13.54,Pass,,,,,,,,,,,,,,,,,,,,,,,,,,,,,,,,,,,,,,,,,,,,,新豐,24.8692766,120.9965344,
10,丹陽,14.25,Arr,,,,,,,,,,,,,,,,,,,,,,,,,,,,,,,,,,,,,,,,,,,,,丹陽,32.0039885,119.5885239,
10,丹陽,16.37,Dep,,,,,,,,,,,,,,,,,,,,,,,,,,,,,,,,,,,,,,,,,,,,,丹陽,32.0039885,119.5885239,
10,呂城,14.37,Pass,,,,,,,,,,,,,,,,,,,,,,,,,,,,,,,,,,,,,,,,,,,,,呂城,31.9071306,119.7420688,
10,奔牛,14.49,Pass,,,,,,,,,,,,,,,,,,,,,,,,,,,,,,,,,,,,,,,,,,,,,奔牛,31.8587844,119.8148213,
10,新閘,14.59,Pass,,,,,,,,,,,,,,,,,,,,,,,,,,,,,,,,,,,,,,,,,,,,,新閘,32.1792597,121.3183827,
10,常州,15.11,Arr,,,,,,,,,,,,,,,,,,,,,,,,,,,,,,,,,,,,,,,,,,,,,常州,31.8122623,119.9691539,
10,常州,15.20,Dep,,,,,,,,,,,,,,,,,,,,,,,,,,,,,,,,,,,,,,,,,,,,,常州,31.8122623,119.9691539,
10,戚墅堰,15.31,Pass,,,,,,,,,,,,,,,,,,,,,,,,,,,,,,,,,,,,,,,,,,,,,戚墅堰,31.7083168,120.0636497,
10,横林,15.41,Pass,,,,,,,,,,,,,,,,,,,,,,,,,,,,,,,,,,,,,,,,,,,,,横林,36.9418402,139.9621839,
10,石塘灣,15.49,Pass,,,,,,,,,,,,,,,,,,,,,,,,,,,,,,,,,,,,,,,,,,,,,石塘灣,31.6491865,120.219613,
10,無錫,16.00,Arr,,,,,,,,,,,,,,,,,,,,,,,,,,,,,,,,,,,,,,,,,,,,,無錫,31.5776626,120.2952752,
10,無錫,16.08,Dep,,,,,,,,,,,,,,,,,,,,,,,,,,,,,,,,,,,,,,,,,,,,,無錫,31.5776626,120.2952752,
10,周涇巷,16.20,Pass,,,,,,,,,,,,,,,,,,,,,,,,,,,,,,,,,,,,,,,,,,,,,周涇巷,31.5155692,120.381183,
10,望亭,16.27,Pass,,,,,,,,,,,,,,,,,,,,,,,,,,,,,,,,,,,,,,,,,,,,,望亭,31.438422,120.4507266,
10,蘇州,16.43,Arr,,,,,,,,,,,,,,,,,,,,,,,,,,,,,,,,,,,,,,,,,,,,,蘇州,31.311123,120.6212881,
10,蘇州,16.50,Dep,,,,,,,,,,,,,,,,,,,,,,,,,,,,,,,,,,,,,,,,,,,,,蘇州,31.311123,120.6212881,
10,唯亭,17.01,Pass,,,,,,,,,,,,,,,,,,,,,,,,,,,,,,,,,,,,,,,,,,,,,唯亭,31.3664487,120.7848271,
10,正儀,17.10,Pass,,,,,,,,,,,,,,,,,,,,,,,,,,,,,,,,,,,,,,,,,,,,,正儀,31.3844899,120.8563578,
10,崑山,17.23,Arr,,,,,,,,,,,,,,,,,,,,,,,,,,,,,,,,,,,,,,,,,,,,,崑山,31.3869323,120.9764683,
10,崑山,17.26,Dep,,,,,,,,,,,,,,,,,,,,,,,,,,,,,,,,,,,,,,,,,,,,,崑山,31.3869323,120.9764683,
10,陸家浜,17.38,Pass,,,,,,,,,,,,,,,,,,,,,,,,,,,,,,,,,,,,,,,,,,,,,陸家浜,31.345291,121.0466609,
10,安亭,17.47,Pass,,,,,,,,,,,,,,,,,,,,,,,,,,,,,,,,,,,,,,,,,,,,,安亭,31.3068413,121.1746972,
10,黄渡,17.56,Pass,,,,,,,,,,,,,,,,,,,,,,,,,,,,,,,,,,,,,,,,,,,,,黄渡,31.2958703,121.2351783,
10,南翔,18.04,Pass,,,,,,,,,,,,,,,,,,,,,,,,,,,,,,,,,,,,,,,,,,,,,南翔,31.2988523,121.3185965,
10,西上海,18.17,Pass,,,,,,,,,,,,,,,,,,,,,,,,,,,,,,,,,,,,,,,,,,,,,西上海,31.2515568,121.4511645,
10,上海,18.30,Arr,,,,,,,,,,,,,,,,,,,,,,,,,,,,,,,,,,,,,,,,,,,,,上海,31.2312707,121.4700152,
10,渾河,↓,Pass,,,,,,,,,,,,,,,,,,,,,,,,,,,,,,,,,,,,,,,,,,,,,渾河,41.8325504,123.6626215,
10,陳相屯,↓,Pass,,,,,,,,,,,,,,,,,,,,,,,,,,,,,,,,,,,,,,,,,,,,,陳相屯,41.56973,123.5029978,
10,姚千戶屯,↓,Pass,,,,,,,,,,,,,,,,,,,,,,,,,,,,,,,,,,,,,,,,,,,,,姚千戶屯,41.535045,123.6130327,
10,烟臺,↓,Pass,,,,,,,,,,,,,,,,,,,,,,,,,,,,,,,,,,,,,,,,,,,,,烟臺,37.461928,121.4425255,
10,火連寨,↓,Pass,,,,,,,,,,,,,,,,,,,,,,,,,,,,,,,,,,,,,,,,,,,,,火連寨,41.3687319,123.718764,
10,宮原,↓,Pass,,,,,,,,,,,,,,,,,,,,,,,,,,,,,,,,,,,,,,,,,,,,,宮原,35.9403002,139.6095462,
10,南甸,↓,Pass,,,,,,,,,,,,,,,,,,,,,,,,,,,,,,,,,,,,,,,,,,,,,南甸,25.5767272,102.4687001,
10,連山關,↓,Pass,,,,,,,,,,,,,,,,,,,,,,,,,,,,,,,,,,,,,,,,,,,,,連山關,40.9660501,123.753259,
10,草河口,↓,Pass,,,,,,,,,,,,,,,,,,,,,,,,,,,,,,,,,,,,,,,,,,,,,草河口,40.8777121,123.9028172,
10,通遠堡,↓,Pass,,,,,,,,,,,,,,,,,,,,,,,,,,,,,,,,,,,,,,,,,,,,,通遠堡,40.7839883,123.9194654,
10,雞冠山,↓,Pass,,,,,,,,,,,,,,,,,,,,,,,,,,,,,,,,,,,,,,,,,,,,,雞冠山,40.5182364,123.9176355,
10,鳳凰城,↓,Pass,,,,,,,,,,,,,,,,,,,,,,,,,,,,,,,,,,,,,,,,,,,,,鳳凰城,22.7504601,113.9280264,
10,五龍背,↓,Pass,,,,,,,,,,,,,,,,,,,,,,,,,,,,,,,,,,,,,,,,,,,,,五龍背,40.2630399,124.2710632,
10,南京城,↓,Arr,,,,,,,,,,,,,,,,,,,,,,,,,,,,,,,,,,,,,,,,,,,,,南京城,32.0891245,118.7922396,
10,南京城,↓,Dep,,,,,,,,,,,,,,,,,,,,,,,,,,,,,,,,,,,,,,,,,,,,,南京城,32.0891245,118.7922396,
10,天安,↓,Arr,,,,,,,,,,,,,,,,,,,,,,,,,,,,,,,,,,,,,,,,,,,,,天安,36.8102804,127.14684,
10,鳥致院,↓,Dep,,,,,,,,,,,,,,,,,,,,,,,,,,,,,,,,,,,,,,,,,,,,,鳥致院,36.60102,127.2958888,
10,金泉,↓,Dep,,,,,,,,,,,,,,,,,,,,,,,,,,,,,,,,,,,,,,,,,,,,,金泉,36.1238437,128.115032,
10,大邱,↓,Dep,,,,,,,,,,,,,,,,,,,,,,,,,,,,,,,,,,,,,,,,,,,,,大邱,35.8713,128.6018,
10,石岩,↓,Pass,,,,,,,,,,,,,,,,,,,,,,,,,,,,,,,,,,,,,,,,,,,,,石岩,22.6831561,113.9334539,
10,下端,↓,Pass,,,,,,,,,,,,,,,,,,,,,,,,,,,,,,,,,,,,,,,,,,,,,下端,35.1062348,128.9667606,
10,郭山,↓,Pass,,,,,,,,,,,,,,,,,,,,,,,,,,,,,,,,,,,,,,,,,,,,,郭山,35.756003,118.596071,
10,肅川,↓,Pass,,,,,,,,,,,,,,,,,,,,,,,,,,,,,,,,,,,,,,,,,,,,,肅川,39.4111401,125.6188087,
10,中和,↓,Pass,,,,,,,,,,,,,,,,,,,,,,,,,,,,,,,,,,,,,,,,,,,,,中和,47.677574,124.3747165,
10,瑞興,↓,Pass,,,,,,,,,,,,,,,,,,,,,,,,,,,,,,,,,,,,,,,,,,,,,瑞興,38.4250985,126.173207,
10,平山,↓,Pass,,,,,,,,,,,,,,,,,,,,,,,,,,,,,,,,,,,,,,,,,,,,,平山,38.4065192,113.8679547,
10,長湍,↓,Pass,,,,,,,,,,,,,,,,,,,,,,,,,,,,,,,,,,,,,,,,,,,,,長湍,31.6040788,117.5885269,
10,臨津江,↓,Pass,,,,,,,,,,,,,,,,,,,,,,,,,,,,,,,,,,,,,,,,,,,,,臨津江,38.426643,126.8542278,
10,一山,↓,Pass,,,,,,,,,,,,,,,,,,,,,,,,,,,,,,,,,,,,,,,,,,,,,一山,35.2069932,134.580808,
10,水色,↓,Pass,,,,,,,,,,,,,,,,,,,,,,,,,,,,,,,,,,,,,,,,,,,,,水色,46.7985624,8.2319736,
10,奈曼旗,9.00,Dep,,,,,,,,,,,,,,,,,,,,,,,,,,,,,,,,,,,,,,,,,,,,,奈曼旗,42.8494679,120.6524402,
10,下窪,12.00,Pass,,,,,,,,,,,,,,,,,,,,,,,,,,,,,,,,,,,,,,,,,,,,,下窪,44.9184178,126.5032054,
10,北票,16.00,Arr,,,,,,,,,,,,,,,,,,,,,,,,,,,,,,,,,,,,,,,,,,,,,北票,41.8000713,120.7655332,
10,下關,11.00,Dep,,,,,,,,,,,,,,,,,,,,,,,,,,,,,,,,,,,,,,,,,,,,,下關,33.9577116,130.9415455,
10,厚狹,↓,Pass,,,,,,,,,,,,,,,,,,,,,,,,,,,,,,,,,,,,,,,,,,,,,厚狹,34.0537909,131.1599628,
10,小郡,0.15,Dep,,,,,,,,,,,,,,,,,,,,,,,,,,,,,,,,,,,,,,,,,,,,,小郡,33.3976172,130.553641,
10,三田尻,0.41,Dep,,,,,,,,,,,,,,,,,,,,,,,,,,,,,,,,,,,,,,,,,,,,,三田尻,34.0383437,131.5843553,
10,德山,1.12,Dep,,,,,,,,,,,,,,,,,,,,,,,,,,,,,,,,,,,,,,,,,,,,,德山,28.9526697,111.7003932,
10,岩國,↓,Pass,,,,,,,,,,,,,,,,,,,,,,,,,,,,,,,,,,,,,,,,,,,,,岩國,34.1719658,132.2255418,
10,麻里布,↓,Pass,,,,,,,,,,,,,,,,,,,,,,,,,,,,,,,,,,,,,,,,,,,,,麻里布,33.9139428,132.043799,
10,宮島,↓,Pass,,,,,,,,,,,,,,,,,,,,,,,,,,,,,,,,,,,,,,,,,,,,,宮島,34.271448,132.3088722,
10,廣島,2.50,Dep,,,,,,,,,,,,,,,,,,,,,,,,,,,,,,,,,,,,,,,,,,,,,廣島,34.3971933,132.4767339,
10,海田市,2.57,Dep,,,,,,,,,,,,,,,,,,,,,,,,,,,,,,,,,,,,,,,,,,,,,海田市,34.3719648,132.5304932,
10,西條,↓,Pass,,,,,,,,,,,,,,,,,,,,,,,,,,,,,,,,,,,,,,,,,,,,,西條,34.4313263,132.7436714,
10,尾道,4.40,Dep,,,,,,,,,,,,,,,,,,,,,,,,,,,,,,,,,,,,,,,,,,,,,尾道,34.4047863,133.1931312,
10,福山,4.52,Dep,,,,,,,,,,,,,,,,,,,,,,,,,,,,,,,,,,,,,,,,,,,,,福山,34.4894286,133.3624823,
10,倉敷,5.14,Dep,,,,,,,,,,,,,,,,,,,,,,,,,,,,,,,,,,,,,,,,,,,,,倉敷,34.6019504,133.7657825,
10,岡山,6.12,Dep,,,,,,,,,,,,,,,,,,,,,,,,,,,,,,,,,,,,,,,,,,,,,岡山,34.6667504,133.9182664,
10,姫路,7.56,Dep,,,,,,,,,,,,,,,,,,,,,,,,,,,,,,,,,,,,,,,,,,,,,姫路,34.8269005,134.6902424,
10,明石,↓,Pass,,,,,,,,,,,,,,,,,,,,,,,,,,,,,,,,,,,,,,,,,,,,,明石,34.6491038,134.9927483,
10,神戸,8.50,Dep,,,,,,,,,,,,,,,,,,,,,,,,,,,,,,,,,,,,,,,,,,,,,神戸,34.6792884,135.1782824,
10,三ノ宮,8.55,Dep,,,,,,,,,,,,,,,,,,,,,,,,,,,,,,,,,,,,,,,,,,,,,三ノ宮,34.6948605,135.1950871,
10,大阪,9.25,Dep,,,,,,,,,,,,,,,,,,,,,,,,,,,,,,,,,,,,,,,,,,,,,大阪,34.6937569,135.5014539,
10,京都,10.14,Dep,,,,,,,,,,,,,,,,,,,,,,,,,,,,,,,,,,,,,,,,,,,,,京都,34.9861909,135.7600629,
10,平房驛,14.10,Dep,,,,,,,,,,,,,,,,,,,,,,,,,,,,,,,,,,,,,,,,,,,,,平房驛,45.5957262,126.6311254,
10,哈爾濱,15.10,Arr,,,,,,,,,,,,,,,,,,,,,,,,,,,,,,,,,,,,,,,,,,,,,哈爾濱,45.7593633,126.6276177,
10,撫松,9.00,Dep,,,,,,,,,,,,,,,,,,,,,,,,,,,,,,,,,,,,,,,,,,,,,撫松,42.2360009,127.6202692,
10,臨江,14.00,Arr,,,,,,,,,,,,,,,,,,,,,,,,,,,,,,,,,,,,,,,,,,,,,臨江,41.8092486,126.9128334,
10,釜山,,Dep,,,,,,,,,,,,,,,,,,,,,,,,,,,,,,,,,,,,,,,,,,,,,釜山,35.1799528,129.0752365,
10,北京,,Arr,,,,,,,,,,,,,,,,,,,,,,,,,,,,,,,,,,,,,,,,,,,,,北京,39.9057136,116.3912972,
10,莫斯科,12.36,Dep,,,,,,,,,,,,,,,,,,,,,,,,,,,,,,,,,,,,,,,,,,,,,莫斯科,55.625578,37.6063916,
10,リガ,22.08,Arr,,,,,,,,,,,,,,,,,,,,,,,,,,,,,,,,,,,,,,,,,,,,,リガ,56.9493977,24.1051846,
10,哈爾濱,9.30,Dep,,,,,,,,,,,,,,,,,,,,,,,,,,,,,,,,,,,,,,,,,,,,,哈爾濱,45.7593633,126.6276177,
10,新京,13.30,Arr,,,,,,,,,,,,,,,,,,,,,,,,,,,,,,,,,,,,,,,,,,,,,新京,43.9088384,125.3177297,
10,新京,13.40,Dep,,,,,,,,,,,,,,,,,,,,,,,,,,,,,,,,,,,,,,,,,,,,,新京,43.9088384,125.3177297,
10,大連,22.00,Arr,,,,,,,,,,,,,,,,,,,,,,,,,,,,,,,,,,,,,,,,,,,,,大連,38.9130495,121.6098013,
10,新京,14.10,Arr,,,,,,,,,,,,,,,,,,,,,,,,,,,,,,,,,,,,,,,,,,,,,新京,43.9088384,125.3177297,
10,延吉,12.00,Arr,,,,,,,,,,,,,,,,,,,,,,,,,,,,,,,,,,,,,,,,,,,,,延吉,43.0718986,129.3755747,
10,延吉,12.15,Dep,,,,,,,,,,,,,,,,,,,,,,,,,,,,,,,,,,,,,,,,,,,,,延吉,43.0718986,129.3755747,
10,圖們,10.15,Arr,,,,,,,,,,,,,,,,,,,,,,,,,,,,,,,,,,,,,,,,,,,,,圖們,42.9625693,129.8334987,
10,圖們,10.25,Dep,,,,,,,,,,,,,,,,,,,,,,,,,,,,,,,,,,,,,,,,,,,,,圖們,42.9625693,129.8334987,
10,琿春,10.00,Dep,,,,,,,,,,,,,,,,,,,,,,,,,,,,,,,,,,,,,,,,,,,,,琿春,42.9899308,130.4643291,
1005,東京,8.55,Dep,,,,,,,,,,,,,,,,,,,,,,,,,,,,,,,,,,,,,,,,,,,,,東京,35.6768601,139.7638947,
1005,名古屋,7.00,Dep,,,,,,,,,,,,,,,,,,,,,,,,,,,,,,,,,,,,,,,,,,,,,名古屋,35.1707285,136.8818431,
1005,京都,7.43,Dep,,,,,,,,,,,,,,,,,,,,,,,,,,,,,,,,,,,,,,,,,,,,,京都,34.9861909,135.7600629,
1005,大阪,7.43,Dep,,,,,,,,,,,,,,,,,,,,,,,,,,,,,,,,,,,,,,,,,,,,,大阪,34.6937569,135.5014539,
1005,三ノ宮,8.15,Dep,,,,,,,,,,,,,,,,,,,,,,,,,,,,,,,,,,,,,,,,,,,,,三ノ宮,34.6948605,135.1950871,
1005,神戸,8.19,Dep,,,,,,,,,,,,,,,,,,,,,,,,,,,,,,,,,,,,,,,,,,,,,神戸,34.6792884,135.1782824,
1005,明石,8.22,Dep,,,,,,,,,,,,,,,,,,,,,,,,,,,,,,,,,,,,,,,,,,,,,明石,34.6491038,134.9927483,
1005,姫路,9.21,Dep,,,,,,,,,,,,,,,,,,,,,,,,,,,,,,,,,,,,,,,,,,,,,姫路,34.8269005,134.6902424,
1005,岡山,10.40,Dep,,,,,,,,,,,,,,,,,,,,,,,,,,,,,,,,,,,,,,,,,,,,,岡山,34.6667504,133.9182664,
1005,倉敷,10.46,Dep,,,,,,,,,,,,,,,,,,,,,,,,,,,,,,,,,,,,,,,,,,,,,倉敷,34.6019504,133.7657825,
1005,福山,↓,Pass,,,,,,,,,,,,,,,,,,,,,,,,,,,,,,,,,,,,,,,,,,,,,福山,34.4894286,133.3624823,
1005,尾道,0.00,Dep,,,,,,,,,,,,,,,,,,,,,,,,,,,,,,,,,,,,,,,,,,,,,尾道,34.4047863,133.1931312,
1005,海田市,0.16,Dep,,,,,,,,,,,,,,,,,,,,,,,,,,,,,,,,,,,,,,,,,,,,,海田市,34.3719648,132.5304932,
1005,廣島,2.12,Dep,,,,,,,,,,,,,,,,,,,,,,,,,,,,,,,,,,,,,,,,,,,,,廣島,34.3971933,132.4767339,
1005,宮島,↓,Pass,,,,,,,,,,,,,,,,,,,,,,,,,,,,,,,,,,,,,,,,,,,,,宮島,34.271448,132.3088722,
1005,岩國,4.11,Dep,,,,,,,,,,,,,,,,,,,,,,,,,,,,,,,,,,,,,,,,,,,,,岩國,34.1719658,132.2255418,
1006,下關,0.35,Dep,,,,,,,,,,,,,,,,,,,,,,,,,,,,,,,,,,,,,,,,,,,,,下關,33.9577116,130.9415455,
1006,厚狹,1.12,Dep,,,,,,,,,,,,,,,,,,,,,,,,,,,,,,,,,,,,,,,,,,,,,厚狹,34.0537909,131.1599628,
1006,小郡,1.46,Dep,,,,,,,,,,,,,,,,,,,,,,,,,,,,,,,,,,,,,,,,,,,,,小郡,33.3976172,130.553641,
1006,三田尻,2.10,Dep,,,,,,,,,,,,,,,,,,,,,,,,,,,,,,,,,,,,,,,,,,,,,三田尻,34.0383437,131.5843553,
1006,德山,2.38,Dep,,,,,,,,,,,,,,,,,,,,,,,,,,,,,,,,,,,,,,,,,,,,,德山,28.9526697,111.7003932,
1006,岩國,↓,Pass,,,,,,,,,,,,,,,,,,,,,,,,,,,,,,,,,,,,,,,,,,,,,岩國,34.1719658,132.2255418,
1006,麻里布,3.29,Dep,,,,,,,,,,,,,,,,,,,,,,,,,,,,,,,,,,,,,,,,,,,,,麻里布,33.9139428,132.043799,
1006,宮島,3.49,Dep,,,,,,,,,,,,,,,,,,,,,,,,,,,,,,,,,,,,,,,,,,,,,宮島,34.271448,132.3088722,
1006,廣島,4.11,Dep,,,,,,,,,,,,,,,,,,,,,,,,,,,,,,,,,,,,,,,,,,,,,廣島,34.3971933,132.4767339,
1006,海田市,4.17,Dep,,,,,,,,,,,,,,,,,,,,,,,,,,,,,,,,,,,,,,,,,,,,,海田市,34.3719648,132.5304932,
1006,西條,4.27,Dep,,,,,,,,,,,,,,,,,,,,,,,,,,,,,,,,,,,,,,,,,,,,,西條,34.4313263,132.7436714,
1006,尾道,6.03,Dep,,,,,,,,,,,,,,,,,,,,,,,,,,,,,,,,,,,,,,,,,,,,,尾道,34.4047863,133.1931312,
1006,福山,6.15,Dep,,,,,,,,,,,,,,,,,,,,,,,,,,,,,,,,,,,,,,,,,,,,,福山,34.4894286,133.3624823,
1006,倉敷,6.37,Dep,,,,,,,,,,,,,,,,,,,,,,,,,,,,,,,,,,,,,,,,,,,,,倉敷,34.6019504,133.7657825,
1006,岡山,7.38,Dep,,,,,,,,,,,,,,,,,,,,,,,,,,,,,,,,,,,,,,,,,,,,,岡山,34.6667504,133.9182664,
1006,姫路,9.10,Dep,,,,,,,,,,,,,,,,,,,,,,,,,,,,,,,,,,,,,,,,,,,,,姫路,34.8269005,134.6902424,
1006,明石,10.10,Dep,,,,,,,,,,,,,,,,,,,,,,,,,,,,,,,,,,,,,,,,,,,,,明石,34.6491038,134.9927483,
1006,神戸,10.12,Dep,,,,,,,,,,,,,,,,,,,,,,,,,,,,,,,,,,,,,,,,,,,,,神戸,34.6792884,135.1782824,
1006,三ノ宮,10.16,Dep,,,,,,,,,,,,,,,,,,,,,,,,,,,,,,,,,,,,,,,,,,,,,三ノ宮,34.6948605,135.1950871,
1006,大阪,10.46,Dep,,,,,,,,,,,,,,,,,,,,,,,,,,,,,,,,,,,,,,,,,,,,,大阪,34.6937569,135.5014539,
1006,京都,11.29,Dep,,,,,,,,,,,,,,,,,,,,,,,,,,,,,,,,,,,,,,,,,,,,,京都,34.9861909,135.7600629,
1006,名古屋,2.40,Dep,,,,,,,,,,,,,,,,,,,,,,,,,,,,,,,,,,,,,,,,,,,,,名古屋,35.1707285,136.8818431,
1006,東京,9.30,Dep,,,,,,,,,,,,,,,,,,,,,,,,,,,,,,,,,,,,,,,,,,,,,東京,35.6768601,139.7638947,
1007,南新義州,1:15,Dep,,,,,,,,,,,,,,,,,,,,,,,,,,,,,,,,,,,,,,,,,,,,,南新義州,40.0708026,124.4344122,75.0
1007,新義州,1:30,Arr,,,,,,,,,,,,,,,,,,,,,,,,,,,,,,,,,,,,,,,,,,,,,新義州,42.359006,93.449334,90.0
1007,天安,02:47,Arr,,,,,,,,,,,,,,,,,,,,,,,,,,,,,,,,,,,,,,,,,,,,,天安,36.8102804,127.14684,167.0
1007,天安,02:51,Dep,,,,,,,,,,,,,,,,,,,,,,,,,,,,,,,,,,,,,,,,,,,,,天安,36.8102804,127.14684,171.0
1007,南大門,03:55,Arr,,,,,,,,,,,,,,,,,,,,,,,,,,,,,,,,,,,,,,,,,,,,,南大門,37.559992,126.9753556,235.0
1007,平山,4:24,Dep,,,,,,,,,,,,,,,,,,,,,,,,,,,,,,,,,,,,,,,,,,,,,平山,38.4065192,113.8679547,264.0
1007,興水,4:36,Dep,,,,,,,,,,,,,,,,,,,,,,,,,,,,,,,,,,,,,,,,,,,,,興水,38.4594756,126.0258227,276.0
1007,平壤,6:05,Arr,,,,,,,,,,,,,,,,,,,,,,,,,,,,,,,,,,,,,,,,,,,,,平壤,39.0046949,125.7358714,365.0
1007,平壤,6:50,Dep,,,,,,,,,,,,,,,,,,,,,,,,,,,,,,,,,,,,,,,,,,,,,平壤,39.0046949,125.7358714,410.0
1007,西平壤,7:08,Dep,,,,,,,,,,,,,,,,,,,,,,,,,,,,,,,,,,,,,,,,,,,,,西平壤,39.0531393,125.7255176,428.0
1007,釜山,07:25,Dep,,,,,,,,,,,,,,,,,,,,,,,,,,,,,,,,,,,,,,,,,,,,,釜山,35.1799528,129.0752365,445.0
1007,間里,7:36,Dep,,,,,,,,,,,,,,,,,,,,,,,,,,,,,,,,,,,,,,,,,,,,,間里,34.620014,107.407483,456.0
1007,順安,7:51,Dep,,,,,,,,,,,,,,,,,,,,,,,,,,,,,,,,,,,,,,,,,,,,,順安,39.1958203,125.6835544,471.0
1007,石巖,8:13,Dep,,,,,,,,,,,,,,,,,,,,,,,,,,,,,,,,,,,,,,,,,,,,,石巖,22.6831561,113.9334539,493.0
1007,三浪津,08:13,Dep,,,,,,,,,,,,,,,,,,,,,,,,,,,,,,,,,,,,,,,,,,,,,三浪津,35.3990296,128.8438715,493.0
1007,漁波,8:30,Dep,,,,,,,,,,,,,,,,,,,,,,,,,,,,,,,,,,,,,,,,,,,,,漁波,39.3273538,125.6506126,510.0
1007,清道,08:43,Dep,,,,,,,,,,,,,,,,,,,,,,,,,,,,,,,,,,,,,,,,,,,,,清道,35.6398546,128.7461654,523.0
1007,大橋,9:08,Dep,,,,,,,,,,,,,,,,,,,,,,,,,,,,,,,,,,,,,,,,,,,,,大橋,33.5592999,130.4265352,548.0
1007,新安州,9:25,Arr,,,,,,,,,,,,,,,,,,,,,,,,,,,,,,,,,,,,,,,,,,,,,新安州,39.5962839,125.6063095,565.0
1007,大邱,09:38,Dep,,,,,,,,,,,,,,,,,,,,,,,,,,,,,,,,,,,,,,,,,,,,,大邱,35.8713,128.6018,578.0
1007,新安州,9:42,Dep,,,,,,,,,,,,,,,,,,,,,,,,,,,,,,,,,,,,,,,,,,,,,新安州,39.5962839,125.6063095,582.0
1007,孟中里,10:30,Dep,,,,,,,,,,,,,,,,,,,,,,,,,,,,,,,,,,,,,,,,,,,,,孟中里,39.6481584,125.5972078,630.0
1007,金泉,10:50,Dep,,,,,,,,,,,,,,,,,,,,,,,,,,,,,,,,,,,,,,,,,,,,,金泉,36.1238437,128.115032,650.0
1007,嘉山,10:55,Dep,,,,,,,,,,,,,,,,,,,,,,,,,,,,,,,,,,,,,,,,,,,,,嘉山,29.5513632,111.8968356,655.0
1007,郭山,11:11,Dep,,,,,,,,,,,,,,,,,,,,,,,,,,,,,,,,,,,,,,,,,,,,,郭山,35.756003,118.596071,671.0
1007,定州,11:27,Dep,,,,,,,,,,,,,,,,,,,,,,,,,,,,,,,,,,,,,,,,,,,,,定州,38.5298375,114.9671026,687.0
1007,車輦館,11:43,Dep,,,,,,,,,,,,,,,,,,,,,,,,,,,,,,,,,,,,,,,,,,,,,車輦館,36.7073618,119.2462647,703.0
1007,東林,11:50,Dep,,,,,,,,,,,,,,,,,,,,,,,,,,,,,,,,,,,,,,,,,,,,,東林,47.5063664,127.0236137,710.0
1007,大田,12:20,Dep,,,,,,,,,,,,,,,,,,,,,,,,,,,,,,,,,,,,,,,,,,,,,大田,36.3497007,127.3849016,740.0
1007,密陽,↓,Pass,,,,,,,,,,,,,,,,,,,,,,,,,,,,,,,,,,,,,,,,,,,,,密陽,35.4748507,128.7714177,
1007,若館,↓,Pass,,,,,,,,,,,,,,,,,,,,,,,,,,,,,,,,,,,,,,,,,,,,,若館,31.140894,97.1809697,
1007,永同,↓,Pass,,,,,,,,,,,,,,,,,,,,,,,,,,,,,,,,,,,,,,,,,,,,,永同,25.1821951,110.6079015,
1007,鳥致院,↓,Pass,,,,,,,,,,,,,,,,,,,,,,,,,,,,,,,,,,,,,,,,,,,,,鳥致院,36.60102,127.2958888,
1007,水原,↓,Pass,,,,,,,,,,,,,,,,,,,,,,,,,,,,,,,,,,,,,,,,,,,,,水原,37.2662775,127.0004098,
1008,開城,00:01,Dep,,,,,,,,,,,,,,,,,,,,,,,,,,,,,,,,,,,,,,,,,,,,,開城,31.2899481,117.7342821,1.0
1008,長湍,00:23,Dep,,,,,,,,,,,,,,,,,,,,,,,,,,,,,,,,,,,,,,,,,,,,,長湍,31.6040788,117.5885269,23.0
1008,京城,01:35,Dep,,,,,,,,,,,,,,,,,,,,,,,,,,,,,,,,,,,,,,,,,,,,,京城,37.5548238,126.9722165,95.0
1008,大田,03:11,Arr,,,,,,,,,,,,,,,,,,,,,,,,,,,,,,,,,,,,,,,,,,,,,大田,36.3497007,127.3849016,191.0
1008,大田,03:12,Dep,,,,,,,,,,,,,,,,,,,,,,,,,,,,,,,,,,,,,,,,,,,,,大田,36.3497007,127.3849016,192.0
1008,安東,04:05,Dep,,,,,,,,,,,,,,,,,,,,,,,,,,,,,,,,,,,,,,,,,,,,,安東,40.1237658,124.3821748,245.0
1008,新義州,04:12,Dep,,,,,,,,,,,,,,,,,,,,,,,,,,,,,,,,,,,,,,,,,,,,,新義州,42.359006,93.449334,252.0
1008,大邱,05:12,Arr,,,,,,,,,,,,,,,,,,,,,,,,,,,,,,,,,,,,,,,,,,,,,大邱,35.8713,128.6018,312.0
1008,大邱,05:18,Dep,,,,,,,,,,,,,,,,,,,,,,,,,,,,,,,,,,,,,,,,,,,,,大邱,35.8713,128.6018,318.0
1008,策市,05:38,Dep,,,,,,,,,,,,,,,,,,,,,,,,,,,,,,,,,,,,,,,,,,,,,策市,35.2477266,115.4464761,338.0
1008,東林,06:05,Dep,,,,,,,,,,,,,,,,,,,,,,,,,,,,,,,,,,,,,,,,,,,,,東林,47.5063664,127.0236137,365.0
1008,定州,06:54,Dep,,,,,,,,,,,,,,,,,,,,,,,,,,,,,,,,,,,,,,,,,,,,,定州,38.5298375,114.9671026,414.0
1008,三浪津,07:02,Arr,,,,,,,,,,,,,,,,,,,,,,,,,,,,,,,,,,,,,,,,,,,,,三浪津,35.3990296,128.8438715,422.0
1008,三浪津,07:05,Dep,,,,,,,,,,,,,,,,,,,,,,,,,,,,,,,,,,,,,,,,,,,,,三浪津,35.3990296,128.8438715,425.0
1008,新安州,07:39,Dep,,,,,,,,,,,,,,,,,,,,,,,,,,,,,,,,,,,,,,,,,,,,,新安州,39.5962839,125.6063095,459.0
1008,釜山,07:57,Arr,,,,,,,,,,,,,,,,,,,,,,,,,,,,,,,,,,,,,,,,,,,,,釜山,35.1799528,129.0752365,477.0
1008,平壤,08:14,Arr,,,,,,,,,,,,,,,,,,,,,,,,,,,,,,,,,,,,,,,,,,,,,平壤,39.0046949,125.7358714,494.0
1008,平壤,08:20,Dep,,,,,,,,,,,,,,,,,,,,,,,,,,,,,,,,,,,,,,,,,,,,,平壤,39.0046949,125.7358714,500.0
1008,釜山棧橋,08:50,Arr,,,,,,,,,,,,,,,,,,,,,,,,,,,,,,,,,,,,,,,,,,,,,釜山棧橋,37.5305517,121.435234,530.0
1008,黃州,09:04,Dep,,,,,,,,,,,,,,,,,,,,,,,,,,,,,,,,,,,,,,,,,,,,,黃州,38.6945065,125.7606443,544.0
1008,沙里院,09:33,Arr,,,,,,,,,,,,,,,,,,,,,,,,,,,,,,,,,,,,,,,,,,,,,沙里院,22.038876,111.6141468,573.0
1008,沙里院,09:38,Dep,,,,,,,,,,,,,,,,,,,,,,,,,,,,,,,,,,,,,,,,,,,,,沙里院,22.038876,111.6141468,578.0
1008,新幕,10:35,Dep,,,,,,,,,,,,,,,,,,,,,,,,,,,,,,,,,,,,,,,,,,,,,新幕,38.4193639,126.2300751,635.0
1008,金郊,11:49,Dep,,,,,,,,,,,,,,,,,,,,,,,,,,,,,,,,,,,,,,,,,,,,,金郊,40.7734654,120.8662331,709.0
1008,天安,↓,Arr,,,,,,,,,,,,,,,,,,,,,,,,,,,,,,,,,,,,,,,,,,,,,天安,36.8102804,127.14684,
1008,石岩,↓,Pass,,,,,,,,,,,,,,,,,,,,,,,,,,,,,,,,,,,,,,,,,,,,,石岩,22.6831561,113.9334539,
1008,下端,↓,Pass,,,,,,,,,,,,,,,,,,,,,,,,,,,,,,,,,,,,,,,,,,,,,下端,35.1062348,128.9667606,
1008,宣川,↓,Pass,,,,,,,,,,,,,,,,,,,,,,,,,,,,,,,,,,,,,,,,,,,,,宣川,39.7982671,124.9189029,
1008,郭山,↓,Pass,,,,,,,,,,,,,,,,,,,,,,,,,,,,,,,,,,,,,,,,,,,,,郭山,35.756003,118.596071,
1008,肅川,↓,Pass,,,,,,,,,,,,,,,,,,,,,,,,,,,,,,,,,,,,,,,,,,,,,肅川,39.4111401,125.6188087,
1008,大同江,↓,Pass,,,,,,,,,,,,,,,,,,,,,,,,,,,,,,,,,,,,,,,,,,,,,大同江,39.565272,126.1449444,
1008,中和,↓,Pass,,,,,,,,,,,,,,,,,,,,,,,,,,,,,,,,,,,,,,,,,,,,,中和,47.677574,124.3747165,
1008,瑞興,↓,Pass,,,,,,,,,,,,,,,,,,,,,,,,,,,,,,,,,,,,,,,,,,,,,瑞興,38.4250985,126.173207,
1008,平山,↓,Pass,,,,,,,,,,,,,,,,,,,,,,,,,,,,,,,,,,,,,,,,,,,,,平山,38.4065192,113.8679547,
1008,臨津江,↓,Pass,,,,,,,,,,,,,,,,,,,,,,,,,,,,,,,,,,,,,,,,,,,,,臨津江,38.426643,126.8542278,
1008,一山,↓,Pass,,,,,,,,,,,,,,,,,,,,,,,,,,,,,,,,,,,,,,,,,,,,,一山,35.2069932,134.580808,
1008,水色,↓,Pass,,,,,,,,,,,,,,,,,,,,,,,,,,,,,,,,,,,,,,,,,,,,,水色,46.7985624,8.2319736,
1008,京城,↓,Pass,,,,,,,,,,,,,,,,,,,,,,,,,,,,,,,,,,,,,,,,,,,,,京城,37.5548238,126.9722165,
101,臨城,0:16,Dep,,,,,,,,,,,,,,,,,,,,,,,,,,,,,,,,,,,,,,,,,,,,,臨城,37.4685251,114.606092,16.0
101,蒲浦,0:20,Dep,,,,,,,,,,,,,,,,,,,,,,,,,,,,,,,,,,,,,,,,,,,,,蒲浦,34.2845755,135.0182397,20.0
101,雙溪,0:28,Dep,,,,,,,,,,,,,,,,,,,,,,,,,,,,,,,,,,,,,,,,,,,,,雙溪,27.0219562,119.0419274,28.0
101,豊水,0:30,Dep,,,,,,,,,,,,,,,,,,,,,,,,,,,,,,,,,,,,,,,,,,,,,豊水,28.4704064,119.9184297,30.0
101,江口,0:36,Dep,,,,,,,,,,,,,,,,,,,,,,,,,,,,,,,,,,,,,,,,,,,,,江口,27.8036782,108.7689072,36.0
101,貢寮,0:44,Dep,,,,,,,,,,,,,,,,,,,,,,,,,,,,,,,,,,,,,,,,,,,,,貢寮,25.0218603,121.9088474,44.0
101,南陽,0:48,Arr,,,,,,,,,,,,,,,,,,,,,,,,,,,,,,,,,,,,,,,,,,,,,南陽,33.0010496,112.5292693,48.0
101,南陽,0:57,Dep,,,,,,,,,,,,,,,,,,,,,,,,,,,,,,,,,,,,,,,,,,,,,南陽,33.0010496,112.5292693,57.0
101,龜山,0:59,Dep,,,,,,,,,,,,,,,,,,,,,,,,,,,,,,,,,,,,,,,,,,,,,龜山,24.9050658,121.8687456,59.0
101,圖們,1:05,Arr,,,,,,,,,,,,,,,,,,,,,,,,,,,,,,,,,,,,,,,,,,,,,圖們,42.9625693,129.8334987,65.0
101,蘇澳,1:17,Arr,,,,,,,,,,,,,,,,,,,,,,,,,,,,,,,,,,,,,,,,,,,,,蘇澳,24.5951769,121.8514536,77.0
101,圖們,1:28,Dep,,,,,,,,,,,,,,,,,,,,,,,,,,,,,,,,,,,,,,,,,,,,,圖們,42.9625693,129.8334987,88.0
101,盛岡,01:59,Arr,,,,,,,,,,,,,,,,,,,,,,,,,,,,,,,,,,,,,,,,,,,,,盛岡,39.7014998,141.1365544,119.0
101,盛岡,02:18,Dep,,,,,,,,,,,,,,,,,,,,,,,,,,,,,,,,,,,,,,,,,,,,,盛岡,39.7014998,141.1365544,138.0
101,尻内,04:41,Dep,,,,,,,,,,,,,,,,,,,,,,,,,,,,,,,,,,,,,,,,,,,,,尻内,48.249382,7.3439412,281.0
101,奉天,05:41,Arr,,,,,,,,,,,,,,,,,,,,,,,,,,,,,,,,,,,,,,,,,,,,,奉天,41.7924481,123.3879307,341.0
101,野邊地,06:00,Dep,,,,,,,,,,,,,,,,,,,,,,,,,,,,,,,,,,,,,,,,,,,,,野邊地,40.8554611,141.1197284,360.0
101,大石橋,6:20,Dep,,,,,,,,,,,,,,,,,,,,,,,,,,,,,,,,,,,,,,,,,,,,,大石橋,40.6348183,122.5042794,380.0
101,淺虫,06:44,Dep,,,,,,,,,,,,,,,,,,,,,,,,,,,,,,,,,,,,,,,,,,,,,淺虫,40.8895447,140.8656119,404.0
101,海城,6:59,Dep,,,,,,,,,,,,,,,,,,,,,,,,,,,,,,,,,,,,,,,,,,,,,海城,40.8522995,122.7477959,419.0
101,青森,07:11,Arr,,,,,,,,,,,,,,,,,,,,,,,,,,,,,,,,,,,,,,,,,,,,,青森,40.8299247,140.7341384,431.0
101,湯崗子,7:26,Dep,,,,,,,,,,,,,,,,,,,,,,,,,,,,,,,,,,,,,,,,,,,,,湯崗子,41.0123715,122.9118184,446.0
101,鞍山,7:46,Dep,,,,,,,,,,,,,,,,,,,,,,,,,,,,,,,,,,,,,,,,,,,,,鞍山,40.822222,122.8275,466.0
101,北京,08:15,Dep,,,,,,,,,,,,,,,,,,,,,,,,,,,,,,,,,,,,,,,,,,,,,北京,39.9057136,116.3912972,495.0
101,北京,8:15,Dep,,,,,,,,,,,,,,,,,,,,,,,,,,,,,,,,,,,,,,,,,,,,,北京,39.9057136,116.3912972,495.0
101,遼陽,8:17,Dep,,,,,,,,,,,,,,,,,,,,,,,,,,,,,,,,,,,,,,,,,,,,,遼陽,41.2742898,123.1695757,497.0
101,豐臺,08:25,Dep,,,,,,,,,,,,,,,,,,,,,,,,,,,,,,,,,,,,,,,,,,,,,豐臺,39.8571176,116.2804172,505.0
101,清津,8:30,Dep,,,,,,,,,,,,,,,,,,,,,,,,,,,,,,,,,,,,,,,,,,,,,清津,13.0836939,80.270186,510.0
101,輸城,8:39,Dep,,,,,,,,,,,,,,,,,,,,,,,,,,,,,,,,,,,,,,,,,,,,,輸城,41.8327205,129.7382105,519.0
101,廊坊,08:41,Dep,,,,,,,,,,,,,,,,,,,,,,,,,,,,,,,,,,,,,,,,,,,,,廊坊,39.5302055,116.6926134,521.0
101,石幕,8:44,Dep,,,,,,,,,,,,,,,,,,,,,,,,,,,,,,,,,,,,,,,,,,,,,石幕,41.8779992,129.7312803,524.0
101,蒼坪,8:53,Dep,,,,,,,,,,,,,,,,,,,,,,,,,,,,,,,,,,,,,,,,,,,,,蒼坪,23.8229724,111.9986962,533.0
101,楊村,09:03,Dep,,,,,,,,,,,,,,,,,,,,,,,,,,,,,,,,,,,,,,,,,,,,,楊村,31.8328462,105.6674622,543.0
101,茂山,9:07,Dep,,,,,,,,,,,,,,,,,,,,,,,,,,,,,,,,,,,,,,,,,,,,,茂山,25.667761,102.49906,547.0
101,蘇家屯,9:17,Dep,,,,,,,,,,,,,,,,,,,,,,,,,,,,,,,,,,,,,,,,,,,,,蘇家屯,41.6626981,123.3379327,557.0
101,渾河,9:26,Dep,,,,,,,,,,,,,,,,,,,,,,,,,,,,,,,,,,,,,,,,,,,,,渾河,41.8325504,123.6626215,566.0
101,古茂山,9:33,Dep,,,,,,,,,,,,,,,,,,,,,,,,,,,,,,,,,,,,,,,,,,,,,古茂山,42.1161135,129.6957251,573.0
101,奉天,9:40,Arr,,,,,,,,,,,,,,,,,,,,,,,,,,,,,,,,,,,,,,,,,,,,,奉天,41.7924481,123.3879307,580.0
101,全巨,9:47,Dep,,,,,,,,,,,,,,,,,,,,,,,,,,,,,,,,,,,,,,,,,,,,,全巨,33.750631,-117.8722311,587.0
101,豆中,10:15,Dep,,,,,,,,,,,,,,,,,,,,,,,,,,,,,,,,,,,,,,,,,,,,,豆中,23.2413628,120.2494492,615.0
101,門司,10:15,Dep,,,,,,,,,,,,,,,,,,,,,,,,,,,,,,,,,,,,,,,,,,,,,門司,33.9045155,130.9329208,615.0
101,八堵,10:30,Dep,,,,,,,,,,,,,,,,,,,,,,,,,,,,,,,,,,,,,,,,,,,,,八堵,25.1084954,121.7290072,630.0
101,會寧,10:30,Dep,,,,,,,,,,,,,,,,,,,,,,,,,,,,,,,,,,,,,,,,,,,,,會寧,35.689015,105.0562462,630.0
101,四脚亭,10:38,Dep,,,,,,,,,,,,,,,,,,,,,,,,,,,,,,,,,,,,,,,,,,,,,四脚亭,25.1026793,121.7618172,638.0
101,金生,10:40,Dep,,,,,,,,,,,,,,,,,,,,,,,,,,,,,,,,,,,,,,,,,,,,,金生,38.144959,140.290727,640.0
101,鎮嶺,10:54,Dep,,,,,,,,,,,,,,,,,,,,,,,,,,,,,,,,,,,,,,,,,,,,,鎮嶺,35.0963542,135.8513226,654.0
101,猴硐,11:09,Dep,,,,,,,,,,,,,,,,,,,,,,,,,,,,,,,,,,,,,,,,,,,,,猴硐,25.0870188,121.8272142,669.0
101,高嶺,11:09,Dep,,,,,,,,,,,,,,,,,,,,,,,,,,,,,,,,,,,,,,,,,,,,,高嶺,30.2483,116.304,669.0
101,三貂嶺,11:20,Dep,,,,,,,,,,,,,,,,,,,,,,,,,,,,,,,,,,,,,,,,,,,,,三貂嶺,25.0661013,121.8223757,680.0
101,新田,11:21,Dep,,,,,,,,,,,,,,,,,,,,,,,,,,,,,,,,,,,,,,,,,,,,,新田,25.9070095,112.1979749,681.0
101,上三峰,11:29,Dep,,,,,,,,,,,,,,,,,,,,,,,,,,,,,,,,,,,,,,,,,,,,,上三峰,29.6722898,117.7447959,689.0
101,天津北站,11:40,Arr,,,,,,,,,,,,,,,,,,,,,,,,,,,,,,,,,,,,,,,,,,,,,天津北站,39.1656713,117.2030494,700.0
101,三峰,11:41,Dep,,,,,,,,,,,,,,,,,,,,,,,,,,,,,,,,,,,,,,,,,,,,,三峰,25.8832071,119.3117723,701.0
101,博多,11:47,Dep,,,,,,,,,,,,,,,,,,,,,,,,,,,,,,,,,,,,,,,,,,,,,博多,33.5900436,130.4203556,707.0
101,天津,11:52,Arr,,,,,,,,,,,,,,,,,,,,,,,,,,,,,,,,,,,,,,,,,,,,,天津,39.3032619,117.4163641,712.0
101,天津,11:52,Dep,,,,,,,,,,,,,,,,,,,,,,,,,,,,,,,,,,,,,,,,,,,,,天津,39.3032619,117.4163641,712.0
101,龍城,11:55,Dep,,,,,,,,,,,,,,,,,,,,,,,,,,,,,,,,,,,,,,,,,,,,,龍城,37.8699921,112.5437075,715.0
101,牡丹坑,11:57,Dep,,,,,,,,,,,,,,,,,,,,,,,,,,,,,,,,,,,,,,,,,,,,,牡丹坑,25.0585151,121.8520609,717.0
101,天津北站,11:59,Dep,,,,,,,,,,,,,,,,,,,,,,,,,,,,,,,,,,,,,,,,,,,,,天津北站,39.1656713,117.2030494,719.0
101,天津西站,12:02,Dep,,,,,,,,,,,,,,,,,,,,,,,,,,,,,,,,,,,,,,,,,,,,,天津西站,39.157355,117.1571195,722.0
101,楊柳靑,12:15,Dep,,,,,,,,,,,,,,,,,,,,,,,,,,,,,,,,,,,,,,,,,,,,,楊柳靑,39.1414621,116.9960349,735.0
101,鳥栖,12:23,Arr,,,,,,,,,,,,,,,,,,,,,,,,,,,,,,,,,,,,,,,,,,,,,鳥栖,33.3739136,130.5198828,743.0
101,鳥栖,12:23,Dep,,,,,,,,,,,,,,,,,,,,,,,,,,,,,,,,,,,,,,,,,,,,,鳥栖,33.3739136,130.5198828,743.0
101,王莊,12:34,Dep,,,,,,,,,,,,,,,,,,,,,,,,,,,,,,,,,,,,,,,,,,,,,王莊,35.5072974,114.4441808,754.0
101,天津,12:40,Dep,,,,,,,,,,,,,,,,,,,,,,,,,,,,,,,,,,,,,,,,,,,,,天津,39.3032619,117.4163641,760.0
101,佐賀,12:51,Dep,,,,,,,,,,,,,,,,,,,,,,,,,,,,,,,,,,,,,,,,,,,,,佐賀,33.2641754,130.2974729,771.0
101,久保田,12:57,Dep,,,,,,,,,,,,,,,,,,,,,,,,,,,,,,,,,,,,,,,,,,,,,久保田,33.2556027,130.2288699,777.0
101,靜海,13:03,Dep,,,,,,,,,,,,,,,,,,,,,,,,,,,,,,,,,,,,,,,,,,,,,靜海,38.9377641,116.9445498,783.0
101,陳官屯,13:04,Arr,,,,,,,,,,,,,,,,,,,,,,,,,,,,,,,,,,,,,,,,,,,,,陳官屯,39.9759412,119.0089942,784.0
101,新河,13:08,Dep,,,,,,,,,,,,,,,,,,,,,,,,,,,,,,,,,,,,,,,,,,,,,新河,37.4906946,115.248748,788.0
101,肥前山口,13:08,Arr,,,,,,,,,,,,,,,,,,,,,,,,,,,,,,,,,,,,,,,,,,,,,肥前山口,34.5774792,135.4761656,788.0
101,肥前山口,13:13,Dep,,,,,,,,,,,,,,,,,,,,,,,,,,,,,,,,,,,,,,,,,,,,,肥前山口,34.5774792,135.4761656,793.0
101,陳官屯,13:15,Dep,,,,,,,,,,,,,,,,,,,,,,,,,,,,,,,,,,,,,,,,,,,,,陳官屯,39.9759412,119.0089942,795.0
101,塘沽,13:18,Dep,,,,,,,,,,,,,,,,,,,,,,,,,,,,,,,,,,,,,,,,,,,,,塘沽,39.0264297,117.634889,798.0
101,上野,13:30,Dep,,,,,,,,,,,,,,,,,,,,,,,,,,,,,,,,,,,,,,,,,,,,,上野,35.7117081,139.7761542,810.0
101,肥前鹿島,13:32,Dep,,,,,,,,,,,,,,,,,,,,,,,,,,,,,,,,,,,,,,,,,,,,,肥前鹿島,33.1142884,130.0979096,812.0
101,蘆臺,13:37,Dep,,,,,,,,,,,,,,,,,,,,,,,,,,,,,,,,,,,,,,,,,,,,,蘆臺,39.3283901,117.8391161,817.0
101,馬廠,13:37,Dep,,,,,,,,,,,,,,,,,,,,,,,,,,,,,,,,,,,,,,,,,,,,,馬廠,28.2542774,112.9831982,817.0
101,靑縣,13:53,Dep,,,,,,,,,,,,,,,,,,,,,,,,,,,,,,,,,,,,,,,,,,,,,靑縣,38.5742905,116.8121731,833.0
101,大宮,14:04,Dep,,,,,,,,,,,,,,,,,,,,,,,,,,,,,,,,,,,,,,,,,,,,,大宮,35.9063869,139.6243304,844.0
101,圖們,14:15,Dep,,,,,,,,,,,,,,,,,,,,,,,,,,,,,,,,,,,,,,,,,,,,,圖們,42.9625693,129.8334987,855.0
101,興濟,14:16,Dep,,,,,,,,,,,,,,,,,,,,,,,,,,,,,,,,,,,,,,,,,,,,,興濟,38.4668669,116.8934882,856.0
101,胥各莊,14:19,Dep,,,,,,,,,,,,,,,,,,,,,,,,,,,,,,,,,,,,,,,,,,,,,胥各莊,39.5558757,118.1095988,859.0
101,唐山,14:27,Arr,,,,,,,,,,,,,,,,,,,,,,,,,,,,,,,,,,,,,,,,,,,,,唐山,39.6295951,118.1738712,867.0
101,姚官屯,14:27,Dep,,,,,,,,,,,,,,,,,,,,,,,,,,,,,,,,,,,,,,,,,,,,,姚官屯,39.9488467,118.8401584,867.0
101,諫早,14:29,Dep,,,,,,,,,,,,,,,,,,,,,,,,,,,,,,,,,,,,,,,,,,,,,諫早,32.8516066,130.0415747,869.0
101,唐山,14:31,Dep,,,,,,,,,,,,,,,,,,,,,,,,,,,,,,,,,,,,,,,,,,,,,唐山,39.6295951,118.1738712,871.0
101,石峴,14:37,Dep,,,,,,,,,,,,,,,,,,,,,,,,,,,,,,,,,,,,,,,,,,,,,石峴,43.0838406,129.7785075,877.0
101,滄縣,14:41,Arr,,,,,,,,,,,,,,,,,,,,,,,,,,,,,,,,,,,,,,,,,,,,,滄縣,38.3130939,116.6185962,881.0
101,古冶,14:51,Dep,,,,,,,,,,,,,,,,,,,,,,,,,,,,,,,,,,,,,,,,,,,,,古冶,39.7325497,118.4408381,891.0
101,小山,14:58,Dep,,,,,,,,,,,,,,,,,,,,,,,,,,,,,,,,,,,,,,,,,,,,,小山,36.3129364,139.8065054,898.0
101,滄縣,14:59,Dep,,,,,,,,,,,,,,,,,,,,,,,,,,,,,,,,,,,,,,,,,,,,,滄縣,38.3130939,116.6185962,899.0
101,三新,15:00,Dep,,,,,,,,,,,,,,,,,,,,,,,,,,,,,,,,,,,,,,,,,,,,,三新,29.0454482,112.8141288,900.0
101,長崎,15:11,Arr,,,,,,,,,,,,,,,,,,,,,,,,,,,,,,,,,,,,,,,,,,,,,長崎,32.7520765,129.868556,911.0
101,馮家口,15:11,Dep,,,,,,,,,,,,,,,,,,,,,,,,,,,,,,,,,,,,,,,,,,,,,馮家口,38.1621782,116.7415059,911.0
101,灤縣,15:14,Dep,,,,,,,,,,,,,,,,,,,,,,,,,,,,,,,,,,,,,,,,,,,,,灤縣,39.7397547,118.6974947,914.0
101,汪清,15:19,Dep,,,,,,,,,,,,,,,,,,,,,,,,,,,,,,,,,,,,,,,,,,,,,汪清,43.4656526,130.1282769,919.0
101,泊頭,15:23,Arr,,,,,,,,,,,,,,,,,,,,,,,,,,,,,,,,,,,,,,,,,,,,,泊頭,38.0764217,116.5696393,923.0
101,宇都宮,15:30,Arr,,,,,,,,,,,,,,,,,,,,,,,,,,,,,,,,,,,,,,,,,,,,,宇都宮,36.5591594,139.8985076,930.0
101,泊頭,15:33,Dep,,,,,,,,,,,,,,,,,,,,,,,,,,,,,,,,,,,,,,,,,,,,,泊頭,38.0764217,116.5696393,933.0
101,宇都宮,15:35,Dep,,,,,,,,,,,,,,,,,,,,,,,,,,,,,,,,,,,,,,,,,,,,,宇都宮,36.5591594,139.8985076,935.0
101,昌黎,15:36,Dep,,,,,,,,,,,,,,,,,,,,,,,,,,,,,,,,,,,,,,,,,,,,,昌黎,39.702907,119.16145,936.0
101,大興溝,15:44,Dep,,,,,,,,,,,,,,,,,,,,,,,,,,,,,,,,,,,,,,,,,,,,,大興溝,41.1810297,121.0744274,944.0
101,東光,15:50,Dep,,,,,,,,,,,,,,,,,,,,,,,,,,,,,,,,,,,,,,,,,,,,,東光,37.8837822,116.6845681,950.0
101,北戴河,16:00,Arr,,,,,,,,,,,,,,,,,,,,,,,,,,,,,,,,,,,,,,,,,,,,,北戴河,39.8605725,119.4354373,960.0
101,連鎭,16:02,Dep,,,,,,,,,,,,,,,,,,,,,,,,,,,,,,,,,,,,,,,,,,,,,連鎭,37.8011005,116.476925,962.0
101,天橋嶺,16:06,Dep,,,,,,,,,,,,,,,,,,,,,,,,,,,,,,,,,,,,,,,,,,,,,天橋嶺,44.7358897,130.9947402,966.0
101,安陵,16:29,Dep,,,,,,,,,,,,,,,,,,,,,,,,,,,,,,,,,,,,,,,,,,,,,安陵,38.4382612,105.9624789,989.0
101,春陽,16:31,Dep,,,,,,,,,,,,,,,,,,,,,,,,,,,,,,,,,,,,,,,,,,,,,春陽,44.2575308,125.7538856,991.0
101,黒磯,16:41,Dep,,,,,,,,,,,,,,,,,,,,,,,,,,,,,,,,,,,,,,,,,,,,,黒磯,36.9701908,140.0601121,1001.0
101,桑園,16:43,Dep,,,,,,,,,,,,,,,,,,,,,,,,,,,,,,,,,,,,,,,,,,,,,桑園,43.0707355,141.3319857,1003.0
101,老松,16:49,Dep,,,,,,,,,,,,,,,,,,,,,,,,,,,,,,,,,,,,,,,,,,,,,老松,31.9127468,131.4315579,1009.0
101,德縣,16:56,Arr,,,,,,,,,,,,,,,,,,,,,,,,,,,,,,,,,,,,,,,,,,,,,德縣,40.2224967,124.691065,1016.0
101,老黑山,17:10,Dep,,,,,,,,,,,,,,,,,,,,,,,,,,,,,,,,,,,,,,,,,,,,,老黑山,25.2174382,102.7630678,1030.0
101,德縣,17:11,Dep,,,,,,,,,,,,,,,,,,,,,,,,,,,,,,,,,,,,,,,,,,,,,德縣,40.2224967,124.691065,1031.0
101,黃河涯,17:29,Dep,,,,,,,,,,,,,,,,,,,,,,,,,,,,,,,,,,,,,,,,,,,,,黃河涯,37.3540338,116.3265752,1049.0
101,鹿道,17:31,Dep,,,,,,,,,,,,,,,,,,,,,,,,,,,,,,,,,,,,,,,,,,,,,鹿道,43.8736747,129.281712,1051.0
101,張莊,17:40,Dep,,,,,,,,,,,,,,,,,,,,,,,,,,,,,,,,,,,,,,,,,,,,,張莊,37.0380781,116.5615894,1060.0
101,白河,17:45,Dep,,,,,,,,,,,,,,,,,,,,,,,,,,,,,,,,,,,,,,,,,,,,,白河,37.1301635,140.2129901,1065.0
101,禹城,17:54,Dep,,,,,,,,,,,,,,,,,,,,,,,,,,,,,,,,,,,,,,,,,,,,,禹城,36.924006,116.6283417,1074.0
101,斗溝子,17:55,Dep,,,,,,,,,,,,,,,,,,,,,,,,,,,,,,,,,,,,,,,,,,,,,斗溝子,43.9388808,129.2537014,1075.0
101,晏城,18:04,Arr,,,,,,,,,,,,,,,,,,,,,,,,,,,,,,,,,,,,,,,,,,,,,晏城,36.8034769,116.7522081,1084.0
101,晏城,18:16,Dep,,,,,,,,,,,,,,,,,,,,,,,,,,,,,,,,,,,,,,,,,,,,,晏城,36.8034769,116.7522081,1096.0
101,東京城,18:20,Dep,,,,,,,,,,,,,,,,,,,,,,,,,,,,,,,,,,,,,,,,,,,,,東京城,44.1156997,129.2185065,1100.0
101,秦皇島,18:25,Arr,,,,,,,,,,,,,,,,,,,,,,,,,,,,,,,,,,,,,,,,,,,,,秦皇島,39.9395724,119.5894129,1105.0
101,齊河,18:33,Dep,,,,,,,,,,,,,,,,,,,,,,,,,,,,,,,,,,,,,,,,,,,,,齊河,36.799444,116.743889,1113.0
101,石門,18:37,Dep,,,,,,,,,,,,,,,,,,,,,,,,,,,,,,,,,,,,,,,,,,,,,石門,29.8035578,111.122528,1117.0
101,郡山,18:37,Dep,,,,,,,,,,,,,,,,,,,,,,,,,,,,,,,,,,,,,,,,,,,,,郡山,37.398488,140.388798,1117.0
101,關地,18:44,Dep,,,,,,,,,,,,,,,,,,,,,,,,,,,,,,,,,,,,,,,,,,,,,關地,26.3110816,100.6042594,1124.0
101,山海關,18:57,Arr,,,,,,,,,,,,,,,,,,,,,,,,,,,,,,,,,,,,,,,,,,,,,山海關,39.9987877,119.7563671,1137.0
101,濟南,18:59,Arr,,,,,,,,,,,,,,,,,,,,,,,,,,,,,,,,,,,,,,,,,,,,,濟南,36.6519754,117.1138479,1139.0
101,寧安,19:01,Dep,,,,,,,,,,,,,,,,,,,,,,,,,,,,,,,,,,,,,,,,,,,,,寧安,44.061477,129.203752,1141.0
101,山海關,19:07,Dep,,,,,,,,,,,,,,,,,,,,,,,,,,,,,,,,,,,,,,,,,,,,,山海關,39.9987877,119.7563671,1147.0
101,春復,19:15,Dep,,,,,,,,,,,,,,,,,,,,,,,,,,,,,,,,,,,,,,,,,,,,,春復,29.6983401,104.0178023,1155.0
101,濟南,19:21,Dep,,,,,,,,,,,,,,,,,,,,,,,,,,,,,,,,,,,,,,,,,,,,,濟南,36.6519754,117.1138479,1161.0
101,海浪,19:32,Dep,,,,,,,,,,,,,,,,,,,,,,,,,,,,,,,,,,,,,,,,,,,,,海浪,44.3251291,129.2337013,1172.0
101,福島,19:43,Dep,,,,,,,,,,,,,,,,,,,,,,,,,,,,,,,,,,,,,,,,,,,,,福島,37.75454,140.4592144,1183.0
101,白馬山,19:44,Dep,,,,,,,,,,,,,,,,,,,,,,,,,,,,,,,,,,,,,,,,,,,,,白馬山,36.6263854,116.9326344,1184.0
101,牡丹江,19:53,Arr,,,,,,,,,,,,,,,,,,,,,,,,,,,,,,,,,,,,,,,,,,,,,牡丹江,44.5790216,129.6113766,1193.0
101,黨家莊,20:06,Dep,,,,,,,,,,,,,,,,,,,,,,,,,,,,,,,,,,,,,,,,,,,,,黨家莊,36.5784272,116.8968714,1206.0
101,牡丹江,20:11,Dep,,,,,,,,,,,,,,,,,,,,,,,,,,,,,,,,,,,,,,,,,,,,,牡丹江,44.5790216,129.6113766,1211.0
101,張夏,20:25,Dep,,,,,,,,,,,,,,,,,,,,,,,,,,,,,,,,,,,,,,,,,,,,,張夏,36.45266,116.9043643,1225.0
101,樺林,20:28,Dep,,,,,,,,,,,,,,,,,,,,,,,,,,,,,,,,,,,,,,,,,,,,,樺林,44.6887413,129.688213,1228.0
101,柴河,20:42,Dep,,,,,,,,,,,,,,,,,,,,,,,,,,,,,,,,,,,,,,,,,,,,,柴河,47.5565029,121.3027098,1242.0
101,萬德,20:42,Dep,,,,,,,,,,,,,,,,,,,,,,,,,,,,,,,,,,,,,,,,,,,,,萬德,36.3380786,116.923196,1242.0
101,界首,20:50,Dep,,,,,,,,,,,,,,,,,,,,,,,,,,,,,,,,,,,,,,,,,,,,,界首,36.2477218,116.9880505,1250.0
101,朱家,21:05,Dep,,,,,,,,,,,,,,,,,,,,,,,,,,,,,,,,,,,,,,,,,,,,,朱家,34.728926,109.415759,1265.0
101,泰安,21:05,Arr,,,,,,,,,,,,,,,,,,,,,,,,,,,,,,,,,,,,,,,,,,,,,泰安,24.3225724,120.7492097,1265.0
101,仙臺,21:09,Arr,,,,,,,,,,,,,,,,,,,,,,,,,,,,,,,,,,,,,,,,,,,,,仙臺,33.5302708,113.450547,1269.0
101,五七,21:16,Dep,,,,,,,,,,,,,,,,,,,,,,,,,,,,,,,,,,,,,,,,,,,,,五七,49.0207259,6.5380352,1276.0
101,泰安,21:17,Dep,,,,,,,,,,,,,,,,,,,,,,,,,,,,,,,,,,,,,,,,,,,,,泰安,24.3225724,120.7492097,1277.0
101,仙臺,21:35,Dep,,,,,,,,,,,,,,,,,,,,,,,,,,,,,,,,,,,,,,,,,,,,,仙臺,33.5302708,113.450547,1295.0
101,大汶口,21:35,Dep,,,,,,,,,,,,,,,,,,,,,,,,,,,,,,,,,,,,,,,,,,,,,大汶口,35.9568053,117.0920646,1295.0
101,吳村,22:06,Dep,,,,,,,,,,,,,,,,,,,,,,,,,,,,,,,,,,,,,,,,,,,,,吳村,35.718402,117.0142342,1326.0
101,錦州,22:21,Arr,,,,,,,,,,,,,,,,,,,,,,,,,,,,,,,,,,,,,,,,,,,,,錦州,41.1087113,121.1186159,1341.0
101,曲阜,22:24,Dep,,,,,,,,,,,,,,,,,,,,,,,,,,,,,,,,,,,,,,,,,,,,,曲阜,35.5956915,116.987543,1344.0
101,姚村,22:45,Dep,,,,,,,,,,,,,,,,,,,,,,,,,,,,,,,,,,,,,,,,,,,,,姚村,35.6656798,116.9239924,1365.0
101,鄒縣,23:04,Dep,,,,,,,,,,,,,,,,,,,,,,,,,,,,,,,,,,,,,,,,,,,,,鄒縣,7.2834335,2.1227604,1384.0
101,界河,23:24,Dep,,,,,,,,,,,,,,,,,,,,,,,,,,,,,,,,,,,,,,,,,,,,,界河,35.205459,117.0670355,1404.0
101,滕縣,23:47,Arr,,,,,,,,,,,,,,,,,,,,,,,,,,,,,,,,,,,,,,,,,,,,,滕縣,23.6394946,110.7311984,1427.0
101,滕縣,23:55,Dep,,,,,,,,,,,,,,,,,,,,,,,,,,,,,,,,,,,,,,,,,,,,,滕縣,23.6394946,110.7311984,1435.0
101,一ノ關,23:58,Dep,,,,,,,,,,,,,,,,,,,,,,,,,,,,,,,,,,,,,,,,,,,,,一ノ關,38.9268807,141.1389019,1438.0
101,海城驛,8.00,Dep,,,,,,,,,,,,,,,,,,,,,,,,,,,,,,,,,,,,,,,,,,,,,海城驛,40.8522995,122.7477959,
101,李家瓦房,9.20,Pass,,,,,,,,,,,,,,,,,,,,,,,,,,,,,,,,,,,,,,,,,,,,,李家瓦房,39.5699885,122.5972937,
101,八岔溝,9.45,Arr,,,,,,,,,,,,,,,,,,,,,,,,,,,,,,,,,,,,,,,,,,,,,八岔溝,41.6194892,120.0797752,
101,花蓮港,9.20,Dep,,,,,,,,,,,,,,,,,,,,,,,,,,,,,,,,,,,,,,,,,,,,,花蓮港,23.9877858,121.634328,
101,壽,9.50,Arr,,,,,,,,,,,,,,,,,,,,,,,,,,,,,,,,,,,,,,,,,,,,,壽,35.7081099,139.7907949,
101,林森,11.18,Arr,,,,,,,,,,,,,,,,,,,,,,,,,,,,,,,,,,,,,,,,,,,,,林森,24.6004637,121.5124086,
101,里東,11.55,Arr,,,,,,,,,,,,,,,,,,,,,,,,,,,,,,,,,,,,,,,,,,,,,里東,23.6261754,108.4476933,
101,臺東,2.20,Arr,,,,,,,,,,,,,,,,,,,,,,,,,,,,,,,,,,,,,,,,,,,,,臺東,22.7934597,121.1224316,
101,基隆,↓,Pass,,,,,,,,,,,,,,,,,,,,,,,,,,,,,,,,,,,,,,,,,,,,,基隆,25.1317232,121.744652,
101,天津,11.52,Dep,,,,,,,,,,,,,,,,,,,,,,,,,,,,,,,,,,,,,,,,,,,,,天津,39.3032619,117.4163641,
101,臨城,11.52,Dep,,,,,,,,,,,,,,,,,,,,,,,,,,,,,,,,,,,,,,,,,,,,,臨城,37.4685251,114.606092,
101,韓莊,15.30,Dep,,,,,,,,,,,,,,,,,,,,,,,,,,,,,,,,,,,,,,,,,,,,,韓莊,34.6145053,117.3677438,
101,利國驛,15.42,Dep,,,,,,,,,,,,,,,,,,,,,,,,,,,,,,,,,,,,,,,,,,,,,利國驛,34.557272,117.3408481,
101,柳泉,16.03,Dep,,,,,,,,,,,,,,,,,,,,,,,,,,,,,,,,,,,,,,,,,,,,,柳泉,34.5175022,112.0347434,
101,夾河寨,16.15,Dep,,,,,,,,,,,,,,,,,,,,,,,,,,,,,,,,,,,,,,,,,,,,,夾河寨,34.2915009,117.0590066,
101,茅村,16.44,Dep,,,,,,,,,,,,,,,,,,,,,,,,,,,,,,,,,,,,,,,,,,,,,茅村,21.32004,110.27896,
101,銅山,16.54,Dep,,,,,,,,,,,,,,,,,,,,,,,,,,,,,,,,,,,,,,,,,,,,,銅山,31.698213,118.8765414,
101,徐州,17.50,Arr,,,,,,,,,,,,,,,,,,,,,,,,,,,,,,,,,,,,,,,,,,,,,徐州,34.2663951,117.2017621,
101,落垡,↓,Pass,,,,,,,,,,,,,,,,,,,,,,,,,,,,,,,,,,,,,,,,,,,,,落垡,39.4392182,116.8379401,
101,北倉,↓,Pass,,,,,,,,,,,,,,,,,,,,,,,,,,,,,,,,,,,,,,,,,,,,,北倉,39.2416408,117.1457309,
101,軍糧城,↓,Pass,,,,,,,,,,,,,,,,,,,,,,,,,,,,,,,,,,,,,,,,,,,,,軍糧城,39.0470041,117.4495646,
101,漢沽,↓,Pass,,,,,,,,,,,,,,,,,,,,,,,,,,,,,,,,,,,,,,,,,,,,,漢沽,39.2554009,117.7956457,
101,開平,↓,Pass,,,,,,,,,,,,,,,,,,,,,,,,,,,,,,,,,,,,,,,,,,,,,開平,22.3474568,112.5344174,
101,石門,↓,Pass,,,,,,,,,,,,,,,,,,,,,,,,,,,,,,,,,,,,,,,,,,,,,石門,29.8035578,111.122528,
101,南大寺,↓,Pass,,,,,,,,,,,,,,,,,,,,,,,,,,,,,,,,,,,,,,,,,,,,,南大寺,39.8707118,119.4908883,
101,湯河,↓,Pass,,,,,,,,,,,,,,,,,,,,,,,,,,,,,,,,,,,,,,,,,,,,,湯河,41.1011673,116.5105677,
101,拜泉,8.00,Dep,,,,,,,,,,,,,,,,,,,,,,,,,,,,,,,,,,,,,,,,,,,,,拜泉,47.576989,126.030847,
101,克山,10.10,Arr,,,,,,,,,,,,,,,,,,,,,,,,,,,,,,,,,,,,,,,,,,,,,克山,48.1838575,125.6957904,
101,興京,9.00,Dep,,,,,,,,,,,,,,,,,,,,,,,,,,,,,,,,,,,,,,,,,,,,,興京,38.3836,106.091,
101,通化,9.30,Dep,,,,,,,,,,,,,,,,,,,,,,,,,,,,,,,,,,,,,,,,,,,,,通化,42.123889,125.848333,
101,,,,Train,,,,,,,,,,,,,拉濱線,,,,,,,,,,,,,,,,,,,,,,,,,,,,,,,,,,
101,岩關,↓,Pass,,,,,,,,,,,,,,,,,,,,,,,,,,,,,,,,,,,,,,,,,,,,,岩關,40.40601,139.966707,
101,開魯,16.30,Arr,,,,,,,,,,,,,,,,,,,,,,,,,,,,,,,,,,,,,,,,,,,,,開魯,43.7438747,121.3797712,
101,京都,10.20,Dep,,,,,,,,,,,,,,,,,,,,,,,,,,,,,,,,,,,,,,,,,,,,,京都,34.9861909,135.7600629,
101,大阪,11.07,Dep,,,,,,,,,,,,,,,,,,,,,,,,,,,,,,,,,,,,,,,,,,,,,大阪,34.6937569,135.5014539,
101,三ノ宮,11.39,Dep,,,,,,,,,,,,,,,,,,,,,,,,,,,,,,,,,,,,,,,,,,,,,三ノ宮,34.6948605,135.1950871,
101,神戸,11.43,Dep,,,,,,,,,,,,,,,,,,,,,,,,,,,,,,,,,,,,,,,,,,,,,神戸,34.6792884,135.1782824,
101,明石,11.48,Dep,,,,,,,,,,,,,,,,,,,,,,,,,,,,,,,,,,,,,,,,,,,,,明石,34.6491038,134.9927483,
101,姫路,1.10,Dep,,,,,,,,,,,,,,,,,,,,,,,,,,,,,,,,,,,,,,,,,,,,,姫路,34.8269005,134.6902424,
101,岡山,2.41,Dep,,,,,,,,,,,,,,,,,,,,,,,,,,,,,,,,,,,,,,,,,,,,,岡山,34.6667504,133.9182664,
101,倉敷,2.50,Dep,,,,,,,,,,,,,,,,,,,,,,,,,,,,,,,,,,,,,,,,,,,,,倉敷,34.6019504,133.7657825,
101,福山,3.11,Dep,,,,,,,,,,,,,,,,,,,,,,,,,,,,,,,,,,,,,,,,,,,,,福山,34.4894286,133.3624823,
101,尾道,4.07,Dep,,,,,,,,,,,,,,,,,,,,,,,,,,,,,,,,,,,,,,,,,,,,,尾道,34.4047863,133.1931312,
101,海田市,4.34,Dep,,,,,,,,,,,,,,,,,,,,,,,,,,,,,,,,,,,,,,,,,,,,,海田市,34.3719648,132.5304932,
101,廣島,4.21,Dep,,,,,,,,,,,,,,,,,,,,,,,,,,,,,,,,,,,,,,,,,,,,,廣島,34.3971933,132.4767339,
101,宮島,8.20,Dep,,,,,,,,,,,,,,,,,,,,,,,,,,,,,,,,,,,,,,,,,,,,,宮島,34.271448,132.3088722,
101,麻里布,8.51,Dep,,,,,,,,,,,,,,,,,,,,,,,,,,,,,,,,,,,,,,,,,,,,,麻里布,33.9139428,132.043799,
101,岩國,8.57,Dep,,,,,,,,,,,,,,,,,,,,,,,,,,,,,,,,,,,,,,,,,,,,,岩國,34.1719658,132.2255418,
101,德山,↓,Pass,,,,,,,,,,,,,,,,,,,,,,,,,,,,,,,,,,,,,,,,,,,,,德山,28.9526697,111.7003932,
101,三田尻,11.12,Dep,,,,,,,,,,,,,,,,,,,,,,,,,,,,,,,,,,,,,,,,,,,,,三田尻,34.0383437,131.5843553,
101,小郡,11.18,Dep,,,,,,,,,,,,,,,,,,,,,,,,,,,,,,,,,,,,,,,,,,,,,小郡,33.3976172,130.553641,
101,厚狹,0.10,Dep,,,,,,,,,,,,,,,,,,,,,,,,,,,,,,,,,,,,,,,,,,,,,厚狹,34.0537909,131.1599628,
101,下關,1.01,Arr,,,,,,,,,,,,,,,,,,,,,,,,,,,,,,,,,,,,,,,,,,,,,下關,33.9577116,130.9415455,
101,哈爾濱,9.00,Dep,,,,,,,,,,,,,,,,,,,,,,,,,,,,,,,,,,,,,,,,,,,,,哈爾濱,45.7593633,126.6276177,
101,三家子,10.10,Dep,,,,,,,,,,,,,,,,,,,,,,,,,,,,,,,,,,,,,,,,,,,,,三家子,40.8366606,119.3915431,
101,阿城,11.00,Arr,,,,,,,,,,,,,,,,,,,,,,,,,,,,,,,,,,,,,,,,,,,,,阿城,45.4750756,127.1603971,
101,宮島,6.40,Dep,,,,,,,,,,,,,,,,,,,,,,,,,,,,,,,,,,,,,,,,,,,,,宮島,34.271448,132.3088722,
101,嚴島町,6.52,Arr,,,,,,,,,,,,,,,,,,,,,,,,,,,,,,,,,,,,,,,,,,,,,嚴島町,37.502223,138.824768,
101,清津,8.30,Dep,,,,,,,,,,,,,,,,,,,,,,,,,,,,,,,,,,,,,,,,,,,,,清津,13.0836939,80.270186,
101,羅津,Pass,Pass,,,,,,,,,,,,,,,,,,,,,,,,,,,,,,,,,,,,,,,,,,,,,羅津,42.2486015,130.2908966,
101,雄基,0.47,Arr,,,,,,,,,,,,,,,,,,,,,,,,,,,,,,,,,,,,,,,,,,,,,雄基,30.3956576,94.3456185,
101,南陽,1.00,Arr,,,,,,,,,,,,,,,,,,,,,,,,,,,,,,,,,,,,,,,,,,,,,南陽,33.0010496,112.5292693,
101,兩下店,↓,Pass,,,,,,,,,,,,,,,,,,,,,,,,,,,,,,,,,,,,,,,,,,,,,兩下店,35.3085313,116.9984834,
101,官橋,↓,Pass,,,,,,,,,,,,,,,,,,,,,,,,,,,,,,,,,,,,,,,,,,,,,官橋,27.9357338,113.3518686,
101,東京,6.50,Dep,,,,,,,,,,,,,,,,,,,,,,,,,,,,,,,,,,,,,,,,,,,,,東京,35.6768601,139.7638947,
101,名古屋,8.00,Arr,,,,,,,,,,,,,,,,,,,,,,,,,,,,,,,,,,,,,,,,,,,,,名古屋,35.1707285,136.8818431,
101,名古屋,8.35,Dep,,,,,,,,,,,,,,,,,,,,,,,,,,,,,,,,,,,,,,,,,,,,,名古屋,35.1707285,136.8818431,
101,京城,12.50,Arr,,,,,,,,,,,,,,,,,,,,,,,,,,,,,,,,,,,,,,,,,,,,,京城,37.5548238,126.9722165,
101,平壤,12.50,Dep,,,,,,,,,,,,,,,,,,,,,,,,,,,,,,,,,,,,,,,,,,,,,平壤,39.0046949,125.7358714,
101,新義州,13.50,Arr,,,,,,,,,,,,,,,,,,,,,,,,,,,,,,,,,,,,,,,,,,,,,新義州,42.359006,93.449334,
101,新京,,Dep,,,,,,,,,,,,,,,,,,,,,,,,,,,,,,,,,,,,,,,,,,,,,新京,43.9088384,125.3177297,
101,斯,,Arr,,,,,,,,,,,,,,,,,,,,,,,,,,,,,,,,,,,,,,,,,,,,,斯,43.167206,11.467561,
101,門司,10.15,Dep,,,,,,,,,,,,,,,,,,,,,,,,,,,,,,,,,,,,,,,,,,,,,門司,33.9045155,130.9329208,
101,博多,11.43,Arr,,,,,,,,,,,,,,,,,,,,,,,,,,,,,,,,,,,,,,,,,,,,,博多,33.5900436,130.4203556,
101,長崎,3.11,Arr,,,,,,,,,,,,,,,,,,,,,,,,,,,,,,,,,,,,,,,,,,,,,長崎,32.7520765,129.868556,
101,新京,16.50,Arr,,,,,,,,,,,,,,,,,,,,,,,,,,,,,,,,,,,,,,,,,,,,,新京,43.9088384,125.3177297,
101,奉天,15.20,Arr,,,,,,,,,,,,,,,,,,,,,,,,,,,,,,,,,,,,,,,,,,,,,奉天,41.7924481,123.3879307,
101,奉天,15.40,Dep,,,,,,,,,,,,,,,,,,,,,,,,,,,,,,,,,,,,,,,,,,,,,奉天,41.7924481,123.3879307,
101,京城,12.50,Dep,,,,,,,,,,,,,,,,,,,,,,,,,,,,,,,,,,,,,,,,,,,,,京城,37.5548238,126.9722165,
101.102,,,,Dining Car Service,,,,,,,,,,,,淸津ー佳木斯間,,,,,,,,,和食丼及幕ノ内、洋食一品式、満食一品式,,,,,,,,,,,,,,,,,,,,,,,,,,
101.102,,,,Dining Car Price,,,,,,,,,,,,,,,,,,,,,,,,,0.60,,,,,,,,,,,,,,,,,,,,,,
1013,清津,05:23,Arr,,,,,,,,,,,,,,,,,,,,,,,,,,,,,,,,,,,,,,,,,,,,,清津,13.0836939,80.270186,323.0
1013,清津,05:55,Dep,,,,,,,,,,,,,,,,,,,,,,,,,,,,,,,,,,,,,,,,,,,,,清津,13.0836939,80.270186,355.0
1013,輸城,06:10,Dep,,,,,,,,,,,,,,,,,,,,,,,,,,,,,,,,,,,,,,,,,,,,,輸城,41.8327205,129.7382105,370.0
1013,蒼坪,06:22,Dep,,,,,,,,,,,,,,,,,,,,,,,,,,,,,,,,,,,,,,,,,,,,,蒼坪,23.8229724,111.9986962,382.0
1013,石幕,06:46,Dep,,,,,,,,,,,,,,,,,,,,,,,,,,,,,,,,,,,,,,,,,,,,,石幕,41.8779992,129.7312803,406.0
1017.1018,,,,Dining Car Service,,,,,,,,,,,,大連ー奉天間,,,,,,,,,洋食一品式、和食、丼,,,,,,,,,,,,,,,,,,,,,,,,,,
1018,鞍山,0:24,Dep,,,,,,,,,,,,,,,,,,,,,,,,,,,,,,,,,,,,,,,,,,,,,鞍山,40.822222,122.8275,24.0
1018,湯崗子,0:47,Dep,,,,,,,,,,,,,,,,,,,,,,,,,,,,,,,,,,,,,,,,,,,,,湯崗子,41.0123715,122.9118184,47.0
1018,甘泉堡,1:15,Dep,,,,,,,,,,,,,,,,,,,,,,,,,,,,,,,,,,,,,,,,,,,,,甘泉堡,44.1543068,87.7299178,75.0
1018,海城,1:32,Dep,,,,,,,,,,,,,,,,,,,,,,,,,,,,,,,,,,,,,,,,,,,,,海城,40.8522995,122.7477959,92.0
1018,蓋平,2:09,Dep,,,,,,,,,,,,,,,,,,,,,,,,,,,,,,,,,,,,,,,,,,,,,蓋平,26.4552401,99.4197677,129.0
1018,熊嶽城,2:31,Dep,,,,,,,,,,,,,,,,,,,,,,,,,,,,,,,,,,,,,,,,,,,,,熊嶽城,40.1797798,122.1424411,151.0
1018,得利寺,3:07,Dep,,,,,,,,,,,,,,,,,,,,,,,,,,,,,,,,,,,,,,,,,,,,,得利寺,39.7820576,122.0565611,187.0
1018,瓦房店,3:50,Arr,,,,,,,,,,,,,,,,,,,,,,,,,,,,,,,,,,,,,,,,,,,,,瓦房店,39.6236752,122.005039,230.0
1018,瓦房店,3:56,Dep,,,,,,,,,,,,,,,,,,,,,,,,,,,,,,,,,,,,,,,,,,,,,瓦房店,39.6236752,122.005039,236.0
1018,普蘭店,4:16,Dep,,,,,,,,,,,,,,,,,,,,,,,,,,,,,,,,,,,,,,,,,,,,,普蘭店,39.4035058,121.9678453,256.0
1018,三十里堡,4:32,Dep,,,,,,,,,,,,,,,,,,,,,,,,,,,,,,,,,,,,,,,,,,,,,三十里堡,39.2654536,121.79688,272.0
1018,金州,4:50,Dep,,,,,,,,,,,,,,,,,,,,,,,,,,,,,,,,,,,,,,,,,,,,,金州,39.0482026,121.7773315,290.0
1018,南關嶺,5:24,Dep,,,,,,,,,,,,,,,,,,,,,,,,,,,,,,,,,,,,,,,,,,,,,南關嶺,39.006386,121.581963,324.0
1018,周水子,5:40,Dep,,,,,,,,,,,,,,,,,,,,,,,,,,,,,,,,,,,,,,,,,,,,,周水子,38.9564935,121.5609033,340.0
1018,沙河口,5:57,Dep,,,,,,,,,,,,,,,,,,,,,,,,,,,,,,,,,,,,,,,,,,,,,沙河口,38.9038452,121.5893322,357.0
1018,大連,6:05,Arr,,,,,,,,,,,,,,,,,,,,,,,,,,,,,,,,,,,,,,,,,,,,,大連,38.9130495,121.6098013,365.0
1018,奉天,22:25,Dep,,,,,,,,,,,,,,,,,,,,,,,,,,,,,,,,,,,,,,,,,,,,,奉天,41.7924481,123.3879307,1345.0
1018,渾河,22:39,Dep,,,,,,,,,,,,,,,,,,,,,,,,,,,,,,,,,,,,,,,,,,,,,渾河,41.8325504,123.6626215,1359.0
1018,蘇家屯,22:55,Dep,,,,,,,,,,,,,,,,,,,,,,,,,,,,,,,,,,,,,,,,,,,,,蘇家屯,41.6626981,123.3379327,1375.0
1018,遼陽,23:50,Dep,,,,,,,,,,,,,,,,,,,,,,,,,,,,,,,,,,,,,,,,,,,,,遼陽,41.2742898,123.1695757,1430.0
1018,沙河,↓,Pass,,,,,,,,,,,,,,,,,,,,,,,,,,,,,,,,,,,,,,,,,,,,,沙河,23.1549226,113.3070641,
1018,十里臺,↓,Pass,,,,,,,,,,,,,,,,,,,,,,,,,,,,,,,,,,,,,,,,,,,,,十里臺,40.314421,113.708013,
1018,烟臺,↓,Pass,,,,,,,,,,,,,,,,,,,,,,,,,,,,,,,,,,,,,,,,,,,,,烟臺,37.461928,121.4425255,
1018,首山,↓,Pass,,,,,,,,,,,,,,,,,,,,,,,,,,,,,,,,,,,,,,,,,,,,,首山,40.6378362,120.7564994,
1018,南臺,↓,Pass,,,,,,,,,,,,,,,,,,,,,,,,,,,,,,,,,,,,,,,,,,,,,南臺,50.5303633,156.0613482,
1018,沙崗,↓,Pass,,,,,,,,,,,,,,,,,,,,,,,,,,,,,,,,,,,,,,,,,,,,,沙崗,40.3515472,122.2581534,
1018,萬家嶺,↓,Pass,,,,,,,,,,,,,,,,,,,,,,,,,,,,,,,,,,,,,,,,,,,,,萬家嶺,39.938007,122.1579583,
1018,松樹,↓,Pass,,,,,,,,,,,,,,,,,,,,,,,,,,,,,,,,,,,,,,,,,,,,,松樹,37.9418034,102.5448725,
1018,許家屯,↓,Pass,,,,,,,,,,,,,,,,,,,,,,,,,,,,,,,,,,,,,,,,,,,,,許家屯,40.0387682,122.0764047,
1018,九寨,↓,Pass,,,,,,,,,,,,,,,,,,,,,,,,,,,,,,,,,,,,,,,,,,,,,九寨,26.5714,108.707,
1018,田家,↓,Pass,,,,,,,,,,,,,,,,,,,,,,,,,,,,,,,,,,,,,,,,,,,,,田家,29.653957,105.155142,
1018,石河,↓,Pass,,,,,,,,,,,,,,,,,,,,,,,,,,,,,,,,,,,,,,,,,,,,,石河,31.285573,106.1886325,
1018,大房身,↓,Pass,,,,,,,,,,,,,,,,,,,,,,,,,,,,,,,,,,,,,,,,,,,,,大房身,44.5640054,125.9289998,
1018,大連,,Dep,,,,,,,,,,,,,,,,,,,,,,,,,,,,,,,,,,,,,,,,,,,,,大連,38.9130495,121.6098013,
1018,新京,,Arr,,,,,,,,,,,,,,,,,,,,,,,,,,,,,,,,,,,,,,,,,,,,,新京,43.9088384,125.3177297,
1019,大連,17:10,Dep,,,,,,,,,,,,,,,,,,,,,,,,,,,,,,,,,,,,,,,,,,,,,大連,38.9130495,121.6098013,1030.0
1019,遼口子,17:18,Dep,,,,,,,,,,,,,,,,,,,,,,,,,,,,,,,,,,,,,,,,,,,,,遼口子,42.3221599,125.0672757,1038.0
1019,周水子,17:26,Arr,,,,,,,,,,,,,,,,,,,,,,,,,,,,,,,,,,,,,,,,,,,,,周水子,38.9564935,121.5609033,1046.0
1019,周水子,17:27,Dep,,,,,,,,,,,,,,,,,,,,,,,,,,,,,,,,,,,,,,,,,,,,,周水子,38.9564935,121.5609033,1047.0
1019,南關房,17:36,Dep,,,,,,,,,,,,,,,,,,,,,,,,,,,,,,,,,,,,,,,,,,,,,南關房,26.2875051,100.707383,1056.0
1019,金州,17:58,Arr,,,,,,,,,,,,,,,,,,,,,,,,,,,,,,,,,,,,,,,,,,,,,金州,39.0482026,121.7773315,1078.0
1019,金州,17:59,Dep,,,,,,,,,,,,,,,,,,,,,,,,,,,,,,,,,,,,,,,,,,,,,金州,39.0482026,121.7773315,1079.0
1019,普蘭店,19:08,Dep,,,,,,,,,,,,,,,,,,,,,,,,,,,,,,,,,,,,,,,,,,,,,普蘭店,39.4035058,121.9678453,1148.0
1019,瓦房店,19:19,Dep,,,,,,,,,,,,,,,,,,,,,,,,,,,,,,,,,,,,,,,,,,,,,瓦房店,39.6236752,122.005039,1159.0
1019,奉天,21:07,Arr,,,,,,,,,,,,,,,,,,,,,,,,,,,,,,,,,,,,,,,,,,,,,奉天,41.7924481,123.3879307,1267.0
1019,大房身,↓,Pass,,,,,,,,,,,,,,,,,,,,,,,,,,,,,,,,,,,,,,,,,,,,,大房身,44.5640054,125.9289998,
1019,二十里臺,↓,Pass,,,,,,,,,,,,,,,,,,,,,,,,,,,,,,,,,,,,,,,,,,,,,二十里臺,39.1951194,121.7528596,
1019,三十里堡,↓,Pass,,,,,,,,,,,,,,,,,,,,,,,,,,,,,,,,,,,,,,,,,,,,,三十里堡,39.2654536,121.79688,
102,閣香,00:22,Dep,,,,,,,,,,,,,,,,,,,,,,,,,,,,,,,,,,,,,,,,,,,,,閣香,30.2726183,119.9940643,22.0
102,仙臺,00:34,Arr,,,,,,,,,,,,,,,,,,,,,,,,,,,,,,,,,,,,,,,,,,,,,仙臺,33.5302708,113.450547,34.0
102,浩力,00:43,Dep,,,,,,,,,,,,,,,,,,,,,,,,,,,,,,,,,,,,,,,,,,,,,浩力,32.8754208,117.5260591,43.0
102,仙臺,00:54,Dep,,,,,,,,,,,,,,,,,,,,,,,,,,,,,,,,,,,,,,,,,,,,,仙臺,33.5302708,113.450547,54.0
102,家樹,01:23,Dep,,,,,,,,,,,,,,,,,,,,,,,,,,,,,,,,,,,,,,,,,,,,,家樹,27.5557058,113.4248136,83.0
102,鄒縣,1:34,Dep,,,,,,,,,,,,,,,,,,,,,,,,,,,,,,,,,,,,,,,,,,,,,鄒縣,7.2834335,2.1227604,94.0
102,福利,01:44,Dep,,,,,,,,,,,,,,,,,,,,,,,,,,,,,,,,,,,,,,,,,,,,,福利,24.7898826,110.5538744,104.0
102,曲阜,2:10,Dep,,,,,,,,,,,,,,,,,,,,,,,,,,,,,,,,,,,,,,,,,,,,,曲阜,35.5956915,116.987543,130.0
102,天山,02:13,Dep,,,,,,,,,,,,,,,,,,,,,,,,,,,,,,,,,,,,,,,,,,,,,天山,42.2539872,80.7025997,133.0
102,福島,02:18,Arr,,,,,,,,,,,,,,,,,,,,,,,,,,,,,,,,,,,,,,,,,,,,,福島,37.75454,140.4592144,138.0
102,福島,02:24,Dep,,,,,,,,,,,,,,,,,,,,,,,,,,,,,,,,,,,,,,,,,,,,,福島,37.75454,140.4592144,144.0
102,山河,02:58,Dep,,,,,,,,,,,,,,,,,,,,,,,,,,,,,,,,,,,,,,,,,,,,,山河,35.3241736,112.7656591,178.0
102,大汶口,3:00,Dep,,,,,,,,,,,,,,,,,,,,,,,,,,,,,,,,,,,,,,,,,,,,,大汶口,35.9568053,117.0920646,180.0
102,泰安,3:26,Arr,,,,,,,,,,,,,,,,,,,,,,,,,,,,,,,,,,,,,,,,,,,,,泰安,24.3225724,120.7492097,206.0
102,泰安,3:34,Dep,,,,,,,,,,,,,,,,,,,,,,,,,,,,,,,,,,,,,,,,,,,,,泰安,24.3225724,120.7492097,214.0
