Station_Kyujitai,Modern_Name,Latitude,Longitude,Type
三棵樹,Harbin East,45.7803,126.7032,Manchuria Rail
哈爾濱,Harbin,45.7592,126.6424,Manchuria Rail
奉天,Shenyang,41.7922,123.4331,Manchuria Rail
新京,Changchun,43.8170,125.3235,Manchuria Rail
大連,Dalian,38.9142,121.6147,Manchuria Rail
吉林,Jilin,43.8504,126.5495,Manchuria Rail